intersection_code,stop_lat,wheelchair_boarding,zone_id,stop_lon,stop_id,stop_name_short,parent_station,stop_name,reference_place,location_type,stop_place,stop_code
N-W/B,32.5766397943,1,,-117.109168914,60140,Imperial Bch&Florida,,Imperial Beach Bl & Florida St,,0,,60140
F-W/B,32.6154032748,2,,-117.063181561,30180,Naples&Alpine,,Naples St & Alpine Av,,0,,30180
N-W/B,32.7434840165,2,,-117.181206998,13356,Wshngtn&India,,Washington St & India St,,0,,13356
N-S/B,32.7981639095,1,,-117.240430765,11543,Ingraham&Grand,,Ingraham St & Grand Av,,0,inggra,11543
N-S/B,32.7105955333,0,,-117.238380478,11546,Rosecrans&McCall,,Rosecrans St & McCall St,,0,,11546
N-S/B,32.7924550668,1,,-117.238733008,11547,Ingraham&Fortuna,,Ingraham St & Fortuna Av,,0,,11547
N-S/B,32.7096453946,1,,-117.238616903,11545,Rosecrans&Lawrence,,Rosecrans St & Lawrence St,,0,,11545
F-S/B,32.8757813493,1,,-117.23921017,11548,Gilman&Eucalyptus Grove,,Gilman Dr & Eucalyptus Grove Ln,,0,schola,11548
N-S/B,32.788997289,1,,-117.237718001,11549,Ingraham&La Pya,,Ingraham St & La Playa Av,,0,,11549
F-N/B,32.8197928335,1,,-117.103791577,60791,Santo&Orleck,,Santo Rd & Orleck St,,0,sanorl,60791
,32.7807318648,,,-117.110801894,msdS_S,msdS_S,,Mission San Diego Station,msdS,1,,
N-W/B,32.7496315186,1,,-117.087789331,11380,Univ&Winona,,University Av & Winona Av,,0,,11380
F-W/B,32.7929807329,1,,-117.086594219,11381,Zion&Winona,,Zion Av & Winona Av,,0,,11381
N-W/B,32.7485497006,1,,-117.137173689,10899,Univ&Arizona,,University Av & Arizona St,,0,,10899
F-N/B,32.8163563096,1,,-117.104715201,60790,Santo&Shields,,Santo Rd & Shields St,,0,,60790
F-W/B,32.7216018876,0,,-117.082983897,11384,Federal&Pentecost,,Federal Bl & Pentecost Wy,,0,,11384
F-W/B,32.6446929993,1,,-117.081841835,11385,E&3rd,,E St & 3rd Av,,0,e3rd,11385
F-W/B,32.6979824238,1,,-117.081597028,11386,Olvera&Gwen,,Olvera Av & Gwen St,,0,,11386
M-Street-W/B,32.7774377365,1,,-117.029536676,13022,Baltimore&Aztec,,Baltimore Dr & Aztec Dr,,0,,13022
N-W/B,32.7044431487,0,,-117.138488486,10893,Ocn Vw&Dewey,,Ocean View Bl & Dewey St,,0,,10893
N-W/B,32.7485385765,1,,-117.139863341,10892,Univ&Louisiana,,University Av & Louisiana St,,0,,10892
N-W/B,32.705104075,0,,-117.139454144,10890,Ocn Vw&Commercial,,Ocean View Bl & Commercial St,,0,25tro,10890
N-W/B,32.7117439595,1,,-117.137999641,10897,Mrkt&26th,,Market St & 26th St,,0,,10897
N-W/B,32.7064559553,1,,-117.137982131,10896,Imperial&26th,,Imperial Av & 26th St,,0,,10896
N-W/B,32.6959931684,1,,-117.137873497,10895,Natl&26th,,National Av & 26th St,,0,,10895
N-W/B,32.7554577463,1,,-117.138557339,10894,El Cjn&Texas,,El Cajon Bl & Texas St,,0,,10894
M-Street-N/B,32.8291594352,2,,-116.961123887,40929,Graves&8445,,Graves Av & 8445,,0,,40929
M-Street-W/B,32.8280081086,0,,-117.099408155,60795,Cmnt Mesa&Mollendo,,Clairemont Mesa Bl & Mollendo Bl,,0,,60795
F-N/B,32.8233700822,1,,-117.095994283,60794,La Cuenta&Macouba,,La Cuenta Dr & Macouba Pl,,0,,60794
F-E/B,32.836079558,1,,-117.019888648,91088,Msn Grg&Big Rock,,Mission Gorge Rd & Big Rock Rd,,0,,91088
F-N/B,32.8253911369,1,,-117.187952468,12701,Gnsee&Mt Foraker,,Genesee Av & Mt Foraker Av,,0,,12701
F-N/B,32.8267571145,1,,-117.190847998,12700,Gnsee&Mt Herbert,,Genesee Av & Mt Herbert Av,,0,,12700
F-N/B,32.8217763946,1,,-117.182930314,12703,Gnsee&Mt Etna,,Genesee Av & Mt Etna Dr,,0,,12703
F-N/B,32.8233309999,1,,-117.184160983,12702,Gnsee&Derrick,,Genesee Av & Derrick Dr,,0,,12702
F-N/B,32.8178556623,1,,-117.180922742,12705,Gnsee&Mt Alifan,,Genesee Av & Mt Alifan Dr,,0,,12705
F-N/B,32.8198735258,1,,-117.18195641,12704,Gnsee&Balboa,,Genesee Av & Balboa Av,,0,balgen,12704
F-N/B,32.7722964495,1,,-117.177233474,12707,L Vsta&Alcala Knolls,,Linda Vista Rd & Alcala Knolls Dr,,0,,12707
N-N/B,32.5686503258,2,,-117.083929738,60353,Hollister&Iris,,Hollister St & Iris Av,,0,,60353
F-N/B,32.8111015448,1,,-117.177769075,12708,Gnsee&Boyd,,Genesee Av & Boyd Av,,0,,12708
N-N/B,32.6269146387,1,,-117.087689402,60351,Brdwy&I,,Broadway & I St,,0,,60351
N-N/B,32.5946259526,1,,-117.083967372,60355,Hollister&Main,,Hollister St & Main St,,0,,60355
F-N/B,32.5842916431,1,,-117.083970374,60354,Hollister&Palm,,Hollister St & Palm Av,,0,plmtro,60354
N-W/B,32.6961607262,1,,-117.107993343,10967,Natl&40th,,National Av & 40th St,,0,,10967
N-W/B,32.6757027993,1,,-117.107719547,10966,W 8th&Roosevelt,,W 8th St & Roosevelt Av,,0,,10966
M-Street-E/B,32.8323582595,1,,-117.204148183,13028,Clairemont&4976 (Clairemont Town Square),,Clairemont Dr & 4976 (Clairemont Town Square),,0,,13028
N-E/B,32.7116265056,1,,-117.109577604,10963,Mrkt&Quail,,Market St & Quail St,,0,,10963
N-W/B,32.7013809796,0,,-117.110238365,10962,Ocn Vw&39th,,Ocean View Bl & 39th St,,0,,10962
N-W/B,32.755363902,1,,-117.113448922,10960,El Cjn&37th,,El Cajon Bl & 37th St,,0,,10960
M-Street-N/B,32.7884831945,1,,-117.108355881,10968,Rcho Mission&Friars,,Rancho Mission Rd & Friars Rd,,0,,10968
F-W/B,32.8330842639,1,,-117.12154606,60820,Cmnt Mesa&Murphy Cyn,,Clairemont Mesa Bl & Murphy Canyon Rd,,0,,60820
N-W/B,32.5766551228,0,,-117.112872859,60137,Imperial Bch&Emory,,Imperial Beach Bl & Emory St,,0,,60137
F-N/B,32.8238833303,2,,-117.144078733,99998,Kearny Villa&Century Park,,Kearny Villa Rd & Century Park Ct,,0,,99998
N-W/B,32.5845323365,1,,-117.117559729,60135,Slvr Strnd&7th,,Silver Strand Bl & 7th St,,0,,60135
N-W/B,32.5766786284,1,,-117.1185213,60134,Imperial Bch&Connecticut,,Imperial Beach Bl & Connecticut St,,0,,60134
N-W/B,32.5840118976,1,,-117.120424404,60133,Palm&Rainbow,,Palm Av & Rainbow Dr,,0,,60133
N-W/B,32.5840192393,1,,-117.122106096,60132,Palm&5th,,Palm Av & 5th St,,0,,60132
N-W/B,32.5767180706,1,,-117.124598389,60131,Imperial Bch&4th,,Imperial Beach Bl & 4th St,,0,imp4th,60131
N-W/B,32.576734935,1,,-117.127250622,60130,Imperial Bch&3rd,,Imperial Beach Bl & 3rd St,,0,,60130
N-E/B,32.8895765596,1,,-117.142795086,10132,Miramar&Cabot,,Miramar Rd & Cabot Dr,,0,,10132
F-E/B,32.727237416,1,,-117.217642592,99993,N Harbor&Laning,,N Harbor Dr & Laning Dr,,0,,99993
F-W/B,32.7288288908,1,,-117.212116193,99995,N Harbor&Lee,,N Harbor Dr & Lee Ct,,0,,99995
N-E/B,32.7285709972,2,,-117.211950466,99994,N Harbor&Spanish Landing W,,N Harbor Dr & Spanish Landing W,,0,,99994
N-W/B,32.584067827,1,,-117.112867406,60138,Palm&Emory,,Palm Av & Emory St,,0,,60138
M-Street-W/B,32.6041141978,1,,-117.040974589,30648,E Orange&EOrange Vlge,,E Orange Av & East Orange Village,,0,,30648
N-N/B,32.6188280004,0,,-117.026963062,30665,Medical Ctr&Medical Ctr,,Medical Center Dr & Medical Center Ct,,0,,30665
,32.7568600682,,,-117.01721547,sprtro,sprtro,,Spring Street Station,,1,,
N-S/B,32.7221789347,0,,-117.169289599,13541,Kettner&Cedar,cocS_S,Kettner Bl & Cedar St,,0,cocS,13541
N-E/B,32.8436948101,1,,-117.273633231,13543,Girard&Kline,,Girard Av & Kline St,,0,,13543
F-N/B,32.9860806663,1,,-117.07531606,13451,Carmel Mtn&Conference Way,,Carmel Mountain Rd & Conference Way,,0,,13451
M-Street-N/B,32.6249379865,1,,-117.037764012,30663,Oleander&Jamul,,Oleander Av & Jamul Ct,,0,,30663
F-E/B,32.5837062515,1,,-117.065911912,60094,Palm&Hawaii,,Palm Av & Hawaii Av,,0,,60094
N-E/B,32.7271141506,1,,-117.163149932,12019,Hawthorn&2nd,,Hawthorn St & 2nd Av,,0,,12019
F-S/B,32.7467767362,1,,-117.163932632,12018,1st&Robinson,,1st Av & Robinson Av,,0,,12018
,32.6769014953,0,,-117.17260847,99848,Slvr Strnd&Avda de las Arenas,,Silver Strand Bl & Avenida de las Arenas,,0,strcit,99848
F-S/B,32.737593106,1,,-117.164045514,12015,1st&Redwood,,1st Av & Redwood St,,0,,12015
F-S/B,32.7311399656,1,,-117.163994841,12014,1st&Laurel,,1st Av & Laurel St,,0,,12014
F-S/B,32.7411989065,1,,-117.164079666,12017,1st&Walnut,,1st Av & Walnut Av,,0,,12017
F-S/B,32.7332204082,1,,-117.164019671,12016,1st&Nutmeg,,1st Av & Nutmeg St,,0,,12016
F-N/B,32.6847651398,1,,-117.179322569,60371,Orange&C,,Orange Av & C Av,,0,,60371
F-S/B,32.6982897254,1,,-117.093812314,11737,47th&T,,47th St & T St,,0,,11737
F-S/B,32.7395581201,1,,-117.16406915,12013,1st&Thorn,,1st Av & Thorn St,,0,,12013
F-S/B,32.7176248918,1,,-117.164820328,12012,Front&B,,Front St & B St,,0,frobst,12012
M-Street-N/B,33.208834343,2,,-116.330010877,98004,Yaqui Pass&Deep Dell Tr,,Yaqui Pass & Deep Dell Tr,,0,,98004
M-Street-E/B,33.1387058713,2,,-116.374930541,98005,Yaqui Pass&Tamarisk Grove Campground,,Yaqui Pass & Tamarisk Grove Campground,,0,,98005
N-S/B,32.7103327288,0,,-117.072796021,11768,Pitta&Mrkt,,Pitta St & Market St,,0,,11768
N-S/B,32.6207977408,1,,-117.072000091,11769,3rd&L,,3rd Av & L St,,0,,11769
M-Street-W/B,33.256546412,2,,-116.369805828,98000,Palm Cyn&Opp 818,,Palm Canyon Rd & Opp 818,,0,,98000
M-Street-W/B,33.2567800102,2,,-116.369815961,98001,Palm Cyn&818,,Palm Canyon Rd & 818,,0,,98001
M-Street-W/B,33.2567281453,2,,-116.36055189,98002,Palm Cyn&1010,,Palm Canyon Rd & 1010,,0,,98002
M-Street-W/B,33.2207466808,2,,-116.336675883,98003,Rango&Cts Yard,,Rango Wy & Cts Yard,,0,,98003
M-Street-W/B,32.7231657323,1,,-117.078911562,11763,Bayview Heights&1670,,Bayview Heights Dr & 1670,,0,,11763
N-S/B,32.7361302387,1,,-117.079752196,11760,54th&Krenning,,54th St & Krenning St,,0,,11760
N-S/B,32.7378729603,1,,-117.079726329,11761,54th&Redwood,,54th St & Redwood St,,0,,11761
N-E/B,32.7138579875,0,,-117.073778261,11766,Kelton&Pyramid,,Kelton Rd & Pyramid St,,0,,11766
N-S/B,32.7003139136,1,,-117.073290879,11767,58th&Mira Flores,,58th St & Mira Flores Dr,,0,,11767
N-S/B,32.7255555058,0,,-117.075845045,11764,Bayview Heights&Hudson Bay,,Bayview Heights Dr & Hudson Bay Ter,,0,,11764
N-S/B,32.7120838856,0,,-117.073976252,11765,Pyramid&Kenwood,,Pyramid St & Kenwood St,,0,,11765
M-Street-E/B,32.8823978832,1,,-117.224232074,99200,Voigt&Scripps Memorial Hospital,,Voigt Dr & Scripps Memorial Hospital,,0,scrhos,99200
F-S/B,32.9124212108,1,,-117.135669315,99203,Westonhill&Mra Msa,,Westonhill Dr & Mira Mesa Bl,,0,,99203
F-E/B,32.7424955847,1,,-117.03828489,10708,Brdwy&West,,Broadway & West St,,0,,10708
N-S/B,32.9087880633,1,,-117.135616436,99205,Westonhill&Hebrides,,Westonhill Dr & Hebrides Dr,,0,,99205
N-N/B,32.9124389379,1,,-117.135496793,99204,Westonhill&Mra Msa,,Westonhill Dr & Mira Mesa Bl,,0,,99204
N-S/B,32.9061468916,1,,-117.135596357,99207,Westonhill&Gold Coast,,Westonhill Dr & Gold Coast Dr,,0,,99207
F-N/B,32.9088249351,1,,-117.135457147,99206,Westonhill&Hebrides,,Westonhill Dr & Hebrides Dr,,0,,99206
M-Street-N/B,32.7793361017,1,,-117.039613444,10703,Lake Murray&Kiowa,,Lake Murray Bl & Kiowa Dr,,0,,10703
F-N/B,32.9060490729,1,,-117.135438976,99208,Westonhill&Gold Coast,,Westonhill Dr & Gold Coast Dr,,0,,99208
F-E/B,32.7424446004,1,,-117.042382188,10701,Brdwy&Mass,,Broadway & Massachusetts Av,,0,,10701
F-E/B,32.7551496166,1,,-117.042577771,10700,Univ&Mass,,University Av & Massachusetts Av,,0,,10700
F-E/B,32.7120448667,0,,-117.03831817,10707,Lisbon&Jamacha,,Lisbon St & Jamacha Rd,,0,,10707
F-E/B,32.8009675275,1,,-117.039488489,10706,Jackson&Golfcrest,,Jackson Dr & Golfcrest Dr,,0,,10706
F-W/B,32.7426880351,1,,-117.038706144,10705,Brdwy&West,,Broadway & West St,,0,,10705
F-E/B,32.7120367977,0,,-117.03957951,10704,Lisbon&Tibbett,,Lisbon St & Tibbett St,,0,,10704
N-E/B,32.6927285378,1,,-117.170770231,60005,4th&Adella,,4th St & Adella Ln,,0,,60005
F-E/B,32.6933791453,1,,-117.172346974,60004,4th&B,,4th St & B Av,,0,,60004
F-E/B,32.7495205491,1,,-117.098397801,10616,Univ&Highland,,University Av & Highland Av,,0,,10616
M-TC-Bus,32.7546481654,1,,-117.199286273,94028,Old Town TC,oldttc,Old Town Transit Center,oldttc,0,ottc_e,94028
M-TC-Bus,32.7546301438,1,,-117.199842286,94022,Old Town TC,oldttc,Old Town Transit Center,oldttc,0,ottc_w,94022
M-TC-Bus,32.7544372873,1,,-117.199902008,94023,Old Town TC,oldttc,Old Town Transit Center,oldttc,0,ottc_w,94023
M-TC-Bus,32.7544629733,1,,-117.199778683,94020,Old Town TC,oldttc,Old Town Transit Center,oldttc,0,ottc_w,94020
M-TC-Bus,32.7549250569,1,,-117.20009267,94021,Old Town TC,oldttc,Old Town Transit Center,oldttc,0,ottc_w,94021
M-TC-Bus,32.7548291527,1,,-117.199340266,94027,Old Town TC,oldttc,Old Town Transit Center,oldttc,0,ottc_e,94027
M-TC-Bus,32.7545989861,1,,-117.199962299,94024,Old Town TC,oldttc,Old Town Transit Center,oldttc,0,ottc_w,94024
M-TC-Bus,32.7542673685,1,,-117.199838375,94025,Old Town TC,oldttc,Old Town Transit Center,oldttc,0,ottc_w,94025
N-S/B,32.7474687852,0,,-117.171400825,11616,Goldfinch&Bush,,Goldfinch St & Bush St,,0,,11616
M-Street-S/B,32.7977721483,2,,-117.171774219,11617,Gnsee&Park Mesa,,Genesee Av & Park Mesa Wy,,0,,11617
N-S/B,32.7453521783,0,,-117.171433981,11615,Goldfinch&Pennsylvania,,Goldfinch St & Pennsylvania Av,,0,,11615
N-S/B,32.7202065263,2,,-117.173199967,11612,N Harbor&Ash,,N Harbor Dr & Ash St,,0,,11612
N-S/B,32.7511254946,0,,-117.172346525,11613,Hawk&Frt Stcktn,,Hawk St & Fort Stockton Dr,,0,,11613
F-E/B,32.7572419617,1,,-117.082940302,10639,El Cjn&52nd,,El Cajon Bl & 52nd St,,0,,10639
N-E/B,32.7117084853,0,,-117.084028276,10638,Roswell&51st,,Roswell St & 51st St,,0,,10638
F-E/B,32.7212735669,1,,-117.084388657,10637,Federal&Euclid,,Federal Bl & Euclid Av,,0,,10637
F-E/B,32.9590091921,1,,-117.11497013,12120,Rcho Pnsqts&Carmel Mtn,,Rancho Penasquitos Bl & Carmel Mountain Rd,,0,,12120
F-E/B,32.6974585975,1,,-117.08427703,10635,Olvera&Euclid,,Olvera Av & Euclid Av,,0,,10635
F-E/B,32.7703242714,2,,-117.08505498,10634,Mntzma&Collwood,,Montezuma Rd & Collwood Bl,,0,,10634
F-E/B,32.7491478221,1,,-117.086568317,10633,Univ&50th,,University Av & 50th St,,0,,10633
F-E/B,32.7928696109,1,,-117.087579144,10632,Zion&Estrella,,Zion Av & Estrella Av,,0,,10632
N-S/B,32.784852945,1,,-117.171193237,11618,L Vsta&Morley Way,,Linda Vista Rd & Morley Way,,0,,11618
N-S/B,32.7326023369,0,,-117.169889363,11619,Reynard&Arroyo,,Reynard Wy & Arroyo Dr,,0,stamap,11619
N-E/B,32.7845409286,1,,-117.204658341,10416,Milton&Denver,,Milton St & Denver St,,0,,10416
N-E/B,32.6927248978,2,,-117.13600412,10143,Main&27th,,Main St & 27th St,,0,,10143
N-E/B,32.912668897,1,,-117.13907043,10142,Mra Msa&Reagan (E),,Mira Mesa Bl & Reagan Rd (E),,0,,10142
F-E/B,32.8276052264,1,,-117.20851421,10413,Cmnt Mesa&Pocahontas,,Clairemont Mesa Bl & Pocahontas Av,,0,,10413
N-E/B,32.8518828641,1,,-117.209944378,10412,Governor&Mercer,,Governor Dr & Mercer St,,0,,10412
N-E/B,32.7063203836,1,,-117.13466487,10147,Imperial&Hensley,,Imperial Av & Hensley St,,0,,10147
F-S/B,32.7502845372,1,,-117.209104146,10410,Midway&East,,Midway Dr & East Dr,,0,,10410
F-S/B,32.8054755478,1,,-117.200859429,11946,Clairemont&Rappahannock,,Clairemont Dr & Rappahannock Av,,0,,11946
N-E/B,32.716830507,1,,-117.134305429,10148,C&28th,,C St & 28th St,,0,,10148
F-S/B,32.8112343015,1,,-117.201139691,11944,Clairemont&Balboa,,Clairemont Dr & Balboa Av,,0,clabal,11944
F-S/B,32.8133702055,1,,-117.201100923,11945,Clairemont&Chippewa,,Clairemont Dr & Chippewa Ct,,0,,11945
F-S/B,32.8090106273,1,,-117.201154726,11942,Clairemont&Ute,,Clairemont Dr & Ute Dr,,0,,11942
M-Street-S/B,32.7819036973,1,,-117.030893927,99122,Lake Murray&Baltimore (Vons),,Lake Murray Bl & Baltimore Dr (Vons),,0,,99122
F-E/B,32.7902612517,1,,-117.20279724,10419,Clairemont&Denver,,Clairemont Dr & Denver St,,0,,10419
F-W/B,32.8304439412,1,,-117.201829064,11941,Cmnt Mesa&Lakehurst,,Clairemont Mesa Bl & Lakehurst Av,,0,,11941
M-Street-N/B,32.7349782044,1,,-116.971400805,40988,Swtwter Sprgs&3115,,Sweetwater Springs Bl & 3115,,0,,40988
F-E/B,32.8034483927,2,,-117.22570831,10386,Garnet&Fogg,,Garnet Av & Fogg St,,0,,10386
F-E/B,32.8002629471,1,,-117.22881999,10384,Grand&Olney,,Grand Av & Olney St,,0,,10384
F-E/B,32.8021977948,1,,-117.229528186,10383,Garnet&Olney,,Garnet Av & Olney St,,0,,10383
N-E/B,32.7328053957,2,,-117.231280326,10382,Macaulay&Tustin,,Macaulay St & Tustin St,,0,,10382
F-E/B,32.7413332003,1,,-117.231046822,10381,Voltaire&Las Lomas,,Voltaire St & Las Lomas St,,0,,10381
M-Street-E/B,32.7596296425,1,,-117.17158006,12999,Hotel Cir S&MV Resort,,Hotel Circle S & Mission Valley Resort,,0,,12999
M-Street-W/B,32.7440795751,1,,-117.021628057,40981,Brdwy&st John'S Pza,,Broadway & st John'S Plaza,,0,,40981
M-Street-W/B,32.8444019448,1,,-117.004752919,40982,Carlton Oaks&Santee Lakes Park,,Carlton Oaks Dr & Santee Lakes Park,,0,,40982
M-TC-Bus,32.8151676936,1,,-117.005426687,40983,Grossmont Coll,,Grossmont College,,0,grcoll,40983
M-Street-W/B,32.8386787257,1,,-116.976014347,40987,Msn Grg&10152,,Mission Gorge Rd & 10152,,0,,40987
N-W/B,32.7497882574,1,,-117.11093541,60648,Univ&39th,,University Av & 39th St,,0,uni39t,60648
,32.780982888,0,,-117.111104982,75058,Mission SD,msdS_S,Mission San Diego Station,,0,msdS,75058
,32.7808139089,0,,-117.110979042,75059,Mission SD,msdS_S,Mission San Diego Station,,0,msdS,75059
N-W/B,32.7950641637,1,,-116.970204136,41286,W Main&Johnson,,W Main St & Johnson Av,,0,,41286
,32.7736329701,0,,-117.141967044,75052,Rio Vista,rioS_S,Rio Vista Station,,0,rioS,75052
,32.7736208907,0,,-117.141698845,75053,Rio Vista,rioS_S,Rio Vista Station,,0,rioS,75053
,32.7710830725,0,,-117.149856105,75050,Msn Vly Cntr,mivS_S,Mission Valley Center Station,,0,mivS,75050
,32.7710931319,0,,-117.150135013,75051,Msn Vly Cntr,mivS_S,Mission Valley Center Station,,0,mivS,75051
,32.7809290363,0,,-117.119491977,75056,Qualcomm Stadium,quaS,Qualcomm Stadium Station,,0,quaS,75056
,32.7810250657,0,,-117.119710918,75057,Qualcomm Stadium,quaS,Qualcomm Stadium Station,,0,quaS,75057
,32.7782700181,0,,-117.127237109,75054,Fenton Pkwy,fenS_S,Fenton Parkway Station,,0,fenS,75054
,32.7783700424,0,,-117.12700808,75055,Fenton Pkwy,fenS_S,Fenton Parkway Station,,0,fenS,75055
F-S/B,32.7312428631,1,,-117.043065146,12235,Mass&Mt Vernon,,Massachusetts Av & Mt Vernon St,,0,masmtv,12235
F-N/B,32.775429619,1,,-117.044887981,12234,Lake Murray&Parkway,,Lake Murray Bl & Parkway Dr,,0,,12234
F-S/B,32.7331257624,2,,-117.043036565,12236,Mass&Rosemary,,Massachusetts Av & Rosemary Ln,,0,,12236
N-E/B,32.9517080108,1,,-117.063713971,41235,Poway&Pomerado,,Poway Rd & Pomerado Rd,,0,powpom,41235
F-S/B,32.8694588312,1,,-117.199743288,99194,Judicial&Research,,Judicial Dr & Research Pl,,0,,99194
F-S/B,32.8034416551,1,,-117.045834048,12233,Jackson&Navajo,,Jackson Dr & Navajo Rd,,0,navjac,12233
F-S/B,32.7706491345,1,,-117.047151381,12232,70th&Saranac,,70th St & Saranac St,,0,elc69,12232
F-W/B,32.7554577364,1,,-117.139321722,99199,El Cjn&Texas,,El Cajon Bl & Texas St,,0,,99199
F-S/B,32.7021955883,1,,-117.030769737,12239,Mdwbrk&Skyline,,Meadowbrook Dr & Skyline Dr,,0,,12239
F-S/B,32.7052390813,0,,-117.031492367,12238,Mdwbrk&Blackpool,,Meadowbrook Dr & Blackpool Rd,,0,,12238
N-E/B,32.7948732314,1,,-116.974650939,40180,W Main&Marshall (Richfield),,W Main St & Marshall Av (Richfield Av),,0,,40180
F-N/B,32.8657332834,1,,-116.981852171,41168,Cuyamaca&Woodglen Vista,,Cuyamaca St & Woodglen Vista Dr,,0,,41168
F-E/B,32.8003079584,1,,-116.969313038,40183,Madison&Johnson,,Madison Av & Johnson Av,,0,madjoh,40183
F-E/B,32.8074841204,2,,-116.969332607,40184,Fletcher&Johnson,,Fletcher Pkwy & Johnson Av,,0,,40184
N-E/B,32.8383133087,1,,-116.970359415,40187,Msn Grg&Edgemoor,,Mission Gorge Rd & Edgemoor Dr,,0,,40187
F-E/B,32.7875901796,1,,-116.968467291,40188,Wshngtn&Emerald,,Washington Av & Emerald Av,,0,,40188
F-E/B,32.7875818011,1,,-116.96184892,40189,Wshngtn&Magnolia,,Washington Av & Magnolia Av,,0,,40189
N-E/B,32.847856265,2,,-116.865068338,41162,Old80&Flinn Crest,,Old Hwy 80 & Flinn Crest St,,0,flinsp,41162
F-N/B,32.8557755475,1,,-116.982778832,41165,Cuyamaca&Mast,,Cuyamaca St & Mast Bl,,0,cuymas,41165
F-N/B,32.8095886752,1,,-116.960448335,41164,Graves&Brdwy,,Graves Av & Broadway,,0,,41164
F-N/B,32.8624252512,2,,-116.982124267,41167,Cuyamaca&El Nopal,,Cuyamaca St & El Nopal,,0,,41167
F-N/B,32.8593658885,1,,-116.982639391,41166,Cuyamaca&Beck,,Cuyamaca St & Beck Dr,,0,,41166
F-S/B,32.7053032223,0,,-117.116892088,10563,36th&Imperial,,36th St & Imperial Av,,0,,10563
M-Street-E/B,32.7487361693,1,,-117.121811037,10560,Univ&33rd,,University Av & 33rd St,,0,,10560
F-E/B,32.7632703922,1,,-117.120237302,10564,Adams&34th,,Adams Av & 34th St,,0,,10564
F-E/B,32.7011760037,1,,-117.118307808,10568,Ocn Vw&35th,,Ocean View Bl & 35th St,,0,,10568
N-E/B,32.7911623586,1,,-117.163215303,10093,Gnsee&Richland,,Genesee Av & Richland St,,0,,10093
N-E/B,32.6587054707,1,,-117.058193789,99428,Swtwter&Calmoor,,Sweetwater Rd & Calmoor St,,0,,99428
N-W/B,32.8328180557,1,,-117.162957285,10091,Cmnt Mesa&Shawline (Kaiser),,Clairemont Mesa Bl & Shawline St (Kaiser),,0,clasha,10091
F-N/B,32.616309332,1,,-117.074488117,30412,4th&EMoss,,4th Av & East Moss St,,0,,30412
N-E/B,32.7156601901,0,,-117.160296985,10097,Brdwy&5th,,Broadway & 5th Av,,0,5thbro,10097
N-E/B,32.8789627302,1,,-117.162608787,10095,Miramar&Distribution,,Miramar Rd & Distribution Av,,0,,10095
N-E/B,32.7156138321,0,,-117.162107439,10094,Brdwy&3rd,,Broadway & 3rd Av,,0,3rdbro,10094
F-S/B,32.9658810996,1,,-117.062589911,99421,Pomerado&Vaughan,,Pomerado Rd & Vaughan Rd,,0,,99421
N-S/B,32.657295968,1,,-117.099804529,99420,Natl City&30th,,National City Bl & 30th St,,0,,99420
N-E/B,32.7156635098,0,,-117.159474458,10099,Brdwy&6th,,Broadway & 6th Av,,0,bro6th,10099
N-E/B,32.748208757,1,,-117.160581221,10098,Univ&5th,,University Av & 5th Av,,0,5thuni,10098
,32.7057699279,0,,-117.124753014,75072,32nd St/Commercial,32nS_S,32nd St/Commercial Station,32nS,0,32nS_N,75072
F-W/B,32.6588543271,1,,-117.058546056,99427,Swtwter&Fairlomas,,Sweetwater Rd & Fairlomas Rd,,0,,99427
F-W/B,32.72937583,1,,-116.962585144,40959,Jamacha&Lamplighter Vlge,,Jamacha Bl & Lamplighter Village,,0,,40959
F-W/B,32.8680110124,1,,-117.231658046,13058,Nobel&LJ Vlge Square,,Nobel Dr & La Jolla Village Square Drwy,,0,noblaj,13058
M-Special_Loc,32.763903041,1,,-117.229456957,13059,SeaWorld,,SeaWorld,,0,seawld,13059
,32.7772547062,,,-117.056314384,avlS_S,avlS_S,,Alvarado Station,avlS,1,,
F-S/B,32.6808935594,1,,-117.176623304,60257,Orange&Glorietta,,Orange Av & Glorietta Bl,,0,,60257
F-E/B,32.744455957,1,,-117.212146653,13180,Rosecrans&Lytton,,Rosecrans St & Lytton St,,0,,13180
M-Street-W/B,32.7795524799,1,,-117.031527046,13056,Baltimore&Wellesley,,Baltimore Dr & Wellesley St,,0,,13056
,32.7052899708,0,,-117.141153934,75075,25th/Commercial St,25tS_S,25th/Commercial St Station,25tS,0,25tS_N,75075
N-S/B,32.6730955025,1,,-117.096837127,11730,Highland&14th,,Highland Av & 14th St,,0,,11730
F-W/B,32.9565167225,1,,-117.034107801,40368,Poway&Gate,,Poway Rd & Gate Dr,,0,,40368
N-W/B,33.0187247371,1,,-117.033831197,40369,Espola&Orchard Bend,,Espola Rd & Orchard Bend Rd,,0,,40369
F-S/B,32.6214620663,1,,-117.027671526,30323,Medical Ctr&E Naples,,Medical Center Dr & E Naples St,,0,,30323
F-W/B,32.971235728,1,,-117.036563966,40366,Aubrey&Midland,,Aubrey St & Midland Rd,,0,,40366
,32.7415419645,0,,-117.184290039,75077,Washington St,wasS_S,Washington St Station,wasS,0,wasS_S,75077
F-W/B,33.0187616327,1,,-117.04013125,40360,Espola&Martincoit,,Espola Rd & Martincoit Rd,,0,,40360
N-W/B,32.9712280209,1,,-117.038637671,40361,Aubrey&York,,Aubrey St & York Av,,0,,40361
F-W/B,33.0187480771,1,,-117.037514671,40362,Espola&Cloudcroft,,Espola Rd & Cloudcroft Dr,,0,,40362
F-W/B,32.9565748541,1,,-117.03836602,40363,Poway&Midland,,Poway Rd & Midland Rd,,0,,40363
,32.7337858645,0,,-117.174922977,75078,Middletown,midS_S,Middletown Station,midS,0,midS_N,75078
F-N/B,32.783815125,1,,-117.061801647,12948,Coll&Del Cerro,,College Av & Del Cerro Bl,,0,,12948
F-E/B,32.7333900249,2,,-116.958042273,40192,Jamacha&Trace,,Jamacha Bl & Trace Rd,,0,,40192
M-Street-W/B,32.6048919623,2,,-116.610568668,98112,Hwy 94&Potrero Post Office - Park & Ride,,Hwy 94 & Potrero Post Office - Park & Ride,,0,potrer,98112
,32.7335139113,0,,-117.174792973,75079,Middletown,midS_S,Middletown Station,midS,0,midS_S,75079
F-N/B,32.7532425816,1,,-117.06446029,12943,Coll&Univ,,College Av & University Av,,0,unicol,12943
F-N/B,32.6023065633,1,,-117.064460357,12940,3rd&Orange,,3rd Av & Orange Av,,0,ora3rd,12940
F-N/B,32.5844491477,1,,-117.061630322,12946,Beyer&Palm,,Beyer Wy & Palm Av,,0,beypal,12946
F-N/B,32.7879361886,0,,-117.06455987,12945,Coll&St Therese,,College Av & St Therese Wy,,0,,12945
,32.9027291363,,,-117.224880836,svcoas,svcoas,,Sorrento Valley Coaster Station,,1,,
N-W/B,32.8569949551,2,,-116.925059524,40321,Woodside&Channel,,Woodside Av & Channel Rd,,0,,40321
F-W/B,32.8573830435,1,,-116.921933093,40322,Woodside&Los Coches,,Woodside Av & Los Coches Rd,,0,,40322
M-Street-S/B,32.8368123093,2,,-116.899028873,40966,Bus 8&13490,,Business 8 & 13490,,0,,40966
M-Street-S/B,32.8374087621,2,,-116.89797518,40967,Bus 8&13545,,Business 8 & 13545,,0,,40967
N-S/B,32.8339899705,1,,-116.904174602,40965,Bus 8&Los Coches,,Business 8 & Los Coches Rd,,0,,40965
F-W/B,32.6454297682,1,,-116.996852167,30529,EH&Baron (Bonita Vista Hs),,East H St & Baron Pl (Bonita Vista Hs),,0,,30529
N-N/B,32.8459411187,1,,-116.930975522,40747,Wtr Gdns&Rockcrest,,Winter Gardens Bl & Rockcrest Rd,,0,,40747
N-W/B,32.7483615338,1,,-116.961288126,40960,Calle Verde&Avocado,,Calle Verde & Avocado Bl,,0,ranvil,40960
N-W/B,32.6002938771,0,,-117.048632374,30258,Orange&Loma,,Orange Av & Loma Ln,,0,,30258
F-W/B,32.611693453,1,,-117.050073457,30257,E Palomar&Judson,,E Palomar St & Judson Wy,,0,,30257
N-N/B,32.6346016954,1,,-117.081671976,30524,4th&Roosevelt,,4th Av & Roosevelt St,,0,h4th1,30524
F-W/B,32.600242319,1,,-117.051914572,30255,Orange&Hilltop,,Orange Av & Hilltop Dr,,0,hilora,30255
F-W/B,32.5948495996,1,,-117.051946745,30254,Main&Hilltop,,Main St & Hilltop Dr,,0,,30254
F-W/B,32.6007178383,0,,-117.054438539,30251,Orange&Kim,,Orange Av & Kim Pl,,0,,30251
F-W/B,32.8437916413,2,,-116.884559029,40969,Bus 8&Lake Jennings Park,,Business 8 & Lake Jennings Park Rd,,0,,40969
N-N/B,32.6878058784,1,,-117.118507656,12493,Main&Thor,,Main St & Thor St,,0,,12493
N-N/B,32.6843421803,1,,-117.113504194,12497,Main&Woden,,Main St & Woden St,,0,,12497
N-N/B,32.6854659558,1,,-117.115124001,12496,Main&Vesta,,Main St & Vesta St,,0,vesmai,12496
N-W/B,32.9594148016,1,,-117.115137134,12498,Rcho Pnsqts&Carmel Mtn,,Rancho Penasquitos Bl & Carmel Mountain Rd,,0,,12498
F-S/B,32.8403306342,1,,-116.893721862,40327,Bus 8&ELakeview,,Business 8 & East Lakeview Rd,,0,,40327
M-TC-Bus,32.8690599958,1,,-117.213730666,95032,UTC TC,utc,UTC Transit Center,,0,utc,95032
,32.7167729761,0,,-117.162428955,75087,Civic Cntr,civS_S,Civic Center Station,civS,0,civS_N,75087
F-S/B,32.6237113551,1,,-117.059513399,30367,Hilltop&L,,Hilltop Dr & L St,,0,,30367
N-S/B,32.6938105832,0,,-117.085201378,50099,Euclid&Solola,,Euclid Av & Solola Av,,0,,50099
F-S/B,32.8403732646,2,,-116.933364513,40563,Wtr Gdns&Fair,,Winter Gardens Bl & Fair Ln,,0,,40563
N-S/B,32.6771406225,1,,-117.102914088,50095,D&E 8th,,D Av & E 8th St,,0,8thdst,50095
N-S/B,32.7889948215,1,,-116.929611096,40566,Jamacha&Wshngtn,,Jamacha Rd & Washington Av,,0,,40566
F-W/B,32.6790785995,1,,-117.068406319,50092,Alleghany&Reo,,Alleghany St & Reo Dr,,0,,50092
M-Street-S/B,32.7907068261,1,,-116.931658022,40564,Jamacha&Sunnyland,,Jamacha Rd & Sunnyland Av,,0,,40564
N-S/B,32.8456981864,2,,-116.931169001,40565,Wtr Gdns&Rockcrest,,Winter Gardens Bl & Rockcrest Rd,,0,,40565
F-W/B,32.8078957515,1,,-117.211313454,11168,Balboa&Moraga,,Balboa Av & Moraga Av,,0,,11168
F-N/B,32.750518682,1,,-117.20974419,11169,Midway&East,,Midway Dr & East Dr,,0,,11169
F-W/B,32.8021910186,1,,-117.216087269,11166,Grand&Mission Bay,,Grand Av & Mission Bay Dr,,0,gramis,11166
F-W/B,32.8738293637,1,,-117.210007943,11167,LJ Vlge&Executive,,La Jolla Village Dr & Executive Wy,,0,,11167
F-W/B,32.7271499065,1,,-117.218636642,11161,N Harbor&Laning,,N Harbor Dr & Laning Rd,,0,,11161
N-N/B,32.7537721609,1,,-117.217585991,11162,Midway&Duke,,Midway Dr & Duke St,,0,,11162
N-N/B,32.6099793901,1,,-117.081059991,60358,Brdwy&Naples,,Broadway & Naples St,,0,,60358
M-Street-E/B,32.7697243773,2,,-117.060845477,13331,Mntzma&Gary,,Montezuma Rd & Gary St,,0,,13331
F-N/B,32.6647255617,1,,-117.093341708,12877,Highland&24th,,Highland Av & 24th St,,0,,12877
N-S/B,32.7311771762,2,,-117.229688314,11559,Plum&Lowell,,Plum St & Lowell St,,0,,11559
F-S/B,32.7174805055,0,,-117.246930623,11862,Catalina&Temple,,Catalina Bl & Temple St,,0,,11862
M-Street-W/B,32.8077856353,1,,-116.976980089,40416,Fletcher&Marshall,,Fletcher Pkwy & Marshall Av,,0,,40416
F-W/B,32.8386333172,1,,-116.973917285,40417,Msn Grg&Cottonwood,,Mission Gorge Rd & Cottonwood Av,,0,,40417
F-W/B,32.8022838799,1,,-117.12976778,12831,Gramercy&Ruffin,,Gramercy Dr & Ruffin Rd,,0,,12831
F-N/B,32.7376565997,1,,-117.129216864,12830,30th&Redwood,,30th St & Redwood St,,0,30red,12830
M-Street-N/B,32.9150193866,1,,-117.124355586,12837,Black Mtn&Vlge Greens MHP (10771),,Black Mountain Rd & Village Greens MHP (10771),,0,,12837
F-N/B,32.8171961604,1,,-117.12412295,12836,Ruffin&Sky Park,,Ruffin Rd & Sky Park Ct,,0,rufsky,12836
F-W/B,32.8431809813,1,,-116.984340993,40410,Town Ctr&Cuyamaca,,Town Center Pkwy & Cuyamaca St,,0,,40410
N-S/B,32.5730352524,1,,-117.084172407,60352,Hollister&Ingrid,,Hollister St & Ingrid Av,,0,,60352
F-N/B,32.6699668295,1,,-117.095364293,12873,Highland&18th,,Highland Av & 18th St,,0,high18,12873
F-N/B,32.9057267866,1,,-117.123953672,12839,Black Mtn&Gold Coast,,Black Mountain Rd & Gold Coast Dr,,0,blagol,12839
N-N/B,32.9126681459,1,,-117.124146475,12838,Black Mtn&Hillery,,Black Mountain Rd & Hillery Dr,,0,,12838
F-W/B,32.7877927463,1,,-116.973313918,40418,Wshngtn&Lemon,,Washington Av & Lemon Av,,0,,40418
M-Street-E/B,32.5589264829,1,,-116.956958106,92262,Avda Costa Norte&Avda Costa Azul,,Avenida Costa Norte & Avenida Costa Azul,,0,,92262
F-S/B,32.5559082703,1,,-116.95511333,92263,Avda Costa Este&Avda De La Fuente,,Avenida Costa Este & Avenida De La Fuente,,0,,92263
F-E/B,32.5603761503,2,,-116.961990443,92260,Airway&La Media,,Airway Rd & La Media Rd,,0,,92260
N-W/B,32.5534504431,1,,-116.957154411,92266,Siempre Viva&Avda Costa Brava,,Siempre Viva Rd & Avenida Costa Brava,,0,,92266
N-N/B,32.5560933001,1,,-116.954959033,92267,Avda Costa Este&Avda De La Fuente,,Avenida Costa Este & Avenida De La Fuente,,0,,92267
F-S/B,32.5982762936,1,,-117.064611484,12212,3rd&Anita,,3rd Av & Anita St,,0,,12212
N-W/B,32.5590775289,1,,-116.956978788,92268,Avda Costa Norte&Avda Costa Azul,,Avenida Costa Norte & Avenida Costa Azul,,0,,92268
F-N/B,32.7880877647,1,,-117.097565392,12870,Msn Grg&Vandever,,Mission Gorge Rd & Vandever Av,,0,,12870
F-S/B,32.5942789616,1,,-117.064353813,12211,Beyer&Main,,Beyer Wy & Main St,,0,mai3rd,12211
N-S/B,32.7739376558,1,,-117.175357281,11606,L Vsta&Northrim,,Linda Vista Rd & Northrim Ct,,0,,11606
N-E/B,32.7520028609,1,,-117.234171022,13337,WPt Loma&Mentone,,West Point Loma Bl & Mentone St,,0,,13337
F-E/B,32.7012485636,1,,-117.062075034,10678,Skyline&O'Meara,,Skyline Dr & O'Meara St,,0,,10678
F-W/B,32.6861713976,1,,-117.058569051,59016,Oriskany&Bairoko,,Oriskany Rd & Bairoko Rd,,0,,59016
N-W/B,32.7002350189,1,,-117.142317604,10884,Logan&I-5 Ramp,,Logan Av & I-5 Ramp,,0,,10884
N-W/B,32.7485526027,1,,-117.142107664,10885,Univ&Alabama,,University Av & Alabama St,,0,,10885
N-E/B,32.7114683815,1,,-117.153988877,10108,Mrkt&Park,marpar,Market St & Park Bl,,0,marpar,10108
N-W/B,32.8097897675,1,,-117.144345712,10880,Aero&Glen H Curtis,,Aero Dr & Glen H Curtis Rd,,0,,10880
N-W/B,32.7064278263,1,,-117.142260009,10882,Imperial&24th,,Imperial Av & 24th St,,0,,10882
N-S/B,32.7712392052,1,,-117.202018905,11578,Morena&Savannah,,Morena Bl & Savannah St,,0,,11578
N-W/B,32.7543365372,1,,-117.202275368,11577,Rosecrans&Moore,,Rosecrans St & Moore St,,0,,11577
N-S/B,32.8503696603,1,,-117.204109011,11576,Gnsee&April,,Genesee Av & April Ct,,0,,11576
N-W/B,32.7527786961,1,,-117.203624627,11575,Rosecrans&Kurtz,,Rosecrans St & Kurtz St,,0,,11575
M-Street-S/B,32.7791191277,0,,-117.207716509,11573,Morena&Asher,,Morena Bl & Asher St,,0,,11573
N-S/B,32.8644429654,1,,-117.212856143,11572,Gnsee&Decoro,,Genesee Av & Decoro St,,0,,11572
N-S/B,32.7511450793,1,,-117.213657329,11570,Midway&Fordham,,Midway Dr & Fordham St,,0,,11570
F-S/B,32.7760694401,1,,-117.157736164,10483,Murray Cyn&Mission Heights,,Murray Canyon Rd & Mission Heights Rd,,0,,10483
F-W/B,32.7929796951,1,,-117.088367674,11379,Zion&Estrella,,Zion Av & Estrella Av,,0,,11379
F-W/B,32.7042754185,1,,-117.089864635,11375,Imperial&49th,,Imperial Av & 49th St,,0,,11375
F-E/B,32.9106614838,1,,-117.155114214,10484,Mra Msa&Parkdale,,Mira Mesa Bl & Parkdale Av,,0,,10484
F-W/B,32.7567288017,1,,-117.088097524,11377,El Cjn&Winona,,El Cajon Bl & Winona Av,,0,,11377
M-Street-W/B,32.7930157292,1,,-117.089536227,11376,Zion&Clara Lee,,Zion Av & Clara Lee Av,,0,,11376
F-W/B,32.6969183489,1,,-117.094195751,11371,Logan&47th,,Logan Av & 47th St,,0,47log,11371
F-W/B,32.696921695,1,,-117.09611359,11370,Logan&46th,,Logan Av & 46th St,,0,,11370
N-W/B,32.675384528,0,,-117.064270889,50075,Cumberland&Reo,,Cumberland St & Reo Dr,,0,reocum,50075
N-W/B,32.6762082136,1,,-117.061483711,50074,Cumberland&Seabreeze,,Cumberland St & Seabreeze Dr,,0,,50074
F-W/B,32.6810253325,2,,-117.102360176,50077,E 4th&F,,E 4th St & F Av,,0,,50077
F-W/B,32.6752634731,1,,-117.102505965,50076,Pza&D,,Plaza Bl & D Av,,0,,50076
N-W/B,32.6909569857,2,,-117.080415911,50071,Division&Drexel,,Division St & Drexel Av,,0,,50071
N-W/B,32.6781399332,1,,-117.082982813,50070,Pza&Grove,,Plaza Bl & Grove St,,0,,50070
N-W/B,32.6601861355,1,,-117.073260711,50073,Swtwter&Orange,,Sweetwater Rd & Orange St,,0,,50073
N-W/B,32.680258428,1,,-117.079401934,50072,Pza&Euclid,,Plaza Bl & Euclid Av,,0,,50072
F-W/B,32.6631579816,1,,-117.097885453,50078,24th&D,,24th St & D Av,,0,,50078
N-N/B,32.5713490629,1,,-117.105602116,60341,13th&Holly,,13th St & Holly Av,,0,,60341
N-N/B,32.5727619359,1,,-117.105580104,60342,13th&Grove,,13th St & Grove Av,,0,,60342
N-N/B,32.5699352259,1,,-117.092611522,60348,Saturn&Ilex,,Saturn Bl & Ilex Av,,0,,60348
F-N/B,32.5731896575,1,,-117.092577664,60349,Saturn&Grove,,Saturn Bl & Grove Av,,0,,60349
F-N/B,32.7876015861,1,,-117.174485636,12712,Comstock&W Jewett,,Comstock St & W Jewett St,,0,,12712
F-N/B,32.7739155061,1,,-117.17501219,12710,L Vsta&Northrim,,Linda Vista Rd & Northrim Ct,,0,,12710
F-N/B,32.8053861188,1,,-117.175372089,12711,Gnsee&Marlesta,,Genesee Av & Marlesta Dr,,0,,12711
F-N/B,32.7848878248,1,,-117.17388123,12714,Comstock&Langmuir,,Comstock St & Langmuir St,,0,,12714
F-N/B,32.7772130071,1,,-117.172906014,12719,L Vsta&Kramer,,Linda Vista Rd & Kramer St,,0,,12719
F-W/B,32.7497255201,1,,-117.103746835,10970,Univ&Van Dyke,,University Av & Van Dyke Av,,0,,10970
N-W/B,32.7633427209,1,,-117.107154548,10973,Adams&Kensington,,Adams Av & Kensington Dr,,0,,10973
N-W/B,32.6961949626,1,,-117.105835347,10975,Natl&41st,,National Av & 41st St,,0,,10975
M-Street-W/B,32.7042651044,1,,-117.104964464,10976,Imperial&Messina,,Imperial Av & Messina Wy,,0,,10976
F-W/B,32.7116107845,1,,-117.105910249,10977,Mrkt&Morrison,,Market St & Morrison St,,0,,10977
N-W/B,32.7497516739,1,,-117.10552619,10978,Univ&Marlborough,,University Av & Marlborough Av,,0,,10978
N-W/B,32.9002514013,2,,-117.107921842,10979,Willow Creek&10180,,Willow Creek Rd & 10180,,0,,10979
F-W/B,32.9130254812,1,,-117.136108783,11289,Mra Msa&Westonhill,,Mira Mesa Bl & Westonhill Dr,,0,,11289
F-W/B,32.7169830159,1,,-117.134118386,11288,C&28th,,C St & 28th St,,0,,11288
F-N/B,32.5953856532,1,,-117.029237229,39007,Brandywine&Auto Park,,Brandywine Av & Auto Park Dr,,0,,39007
M-Street-E/B,32.5947248156,1,,-117.032461902,39006,Auto Park&Oleander,,Auto Park Dr & Oleander Av,,0,,39006
F-E/B,32.5945947419,1,,-117.053097022,39001,Main&Mace,,Main St & Mace St,,0,,39001
F-W/B,32.5985474341,1,,-117.070140194,39003,Anita&4th,,Anita St & 4th Av,,0,,39003
F-E/B,32.6402297788,1,,-117.083420715,39002,F&4th,,F St & 4th Av,,0,,39002
F-W/B,32.7169547633,1,,-117.138432537,11280,C&26th,,C St & 26th St,,0,,11280
F-E/B,32.8275388667,1,,-117.098899048,60834,Cmnt Mesa&Mollendo,,Clairemont Mesa Bl & Mollendo Bl,,0,,60834
F-W/B,32.9130081574,1,,-117.138904417,11282,Mra Msa&New Salem,,Mira Mesa Bl & New Salem St,,0,,11282
N-W/B,32.6145043193,1,,-117.023521647,39009,E Palomar&Davies,,E Palomar St & Davies Dr,,0,,39009
F-W/B,32.6960261065,1,,-117.135969036,11284,Natl&27th,,National Av & 27th St,,0,,11284
F-W/B,32.8027026009,1,,-117.135402135,11287,Gramercy&Mobley,,Gramercy Dr & Mobley St,,0,,11287
M-Street-W/B,32.8219740182,1,,-117.134795188,11286,Balboa&9020,,Balboa Av & 9020,,0,,11286
N-W/B,32.7005556553,1,,-117.144723092,60123,Natl&Cesar E Chavez,,National Av & Cesar E Chavez Pkwy,,0,natces,60123
M-Street-W/B,32.5951639016,2,,-116.528485286,98109,Hwy 94&Dogpatch,,Hwy 94 & Dogpatch,,0,,98109
M-Street-E/B,32.5949745787,2,,-116.528345082,98108,Hwy 94&Dogpatch,,Hwy 94 & Dogpatch,,0,,98108
N-S/B,32.6084779729,2,,-116.474215211,98105,Hwy 94&Forest Gate,,Hwy 94 & Forest Gate Rd,,0,,98105
N-N/B,32.6082034411,2,,-116.474045661,98104,Hwy 94&Forest Gate,,Hwy 94 & Forest Gate Rd,,0,campoP,98104
M-Street-N/B,32.5898560875,2,,-116.521387962,98107,Hwy 94&Mtn Empire Campground,,Hwy 94 & Mountain Empire Campground,,0,,98107
F-S/B,32.5901060903,2,,-116.521434182,98106,Hwy 94&Mtn Empire Campground,,Hwy 94 & Mountain Empire Campground,,0,,98106
M-Street-N/B,32.8410515073,2,,-116.612978403,98101,Old80&Descanso Real Estate,,Old Hwy 80 & Descanso Real Estate,,0,descan,98101
F-S/B,32.8410703346,2,,-116.613118478,98100,Old80&Riverside,,Old Hwy 80 & Riverside St,,0,descan,98100
F-W/B,32.628478275,2,,-116.472609608,98103,Hwy 94&Buckman Sprgs,,Hwy 94 & Buckman Springs Rd,,0,,98103
N-E/B,32.6284264309,2,,-116.472401611,98102,Hwy 94&Buckman Sprgs,,Hwy 94 & Buckman Springs Rd,,0,campo,98102
F-E/B,32.7550311266,1,,-117.103603088,13531,El Cjn&Copeland,,El Cajon Bl & Copeland Av,,0,,13531
F-S/B,32.718760296,1,,-117.12964612,13533,30th&A,,30th St & A St,,0,30tast,13533
N-N/B,32.7188252923,1,,-117.129396416,13532,30th&A,,30th St & A St,,0,30tast,13532
N-N/B,32.8607563827,1,,-117.208718997,13143,Gnsee&Centurion Sq,,Genesee Av & Centurion Sq,,0,,13143
N-S/B,32.728966196,1,,-117.080377356,11756,54th&Pirotte,,54th St & Pirotte Dr,,0,,11756
N-S/B,32.7600043642,1,,-117.080878093,11755,Collwood&Monroe,,Collwood Bl & Monroe Av,,0,,11755
N-S/B,32.6414564507,1,,-117.080037649,11754,3rd&F,,3rd Av & F St,,0,3rdf,11754
M-Street-S/B,33.0158399827,2,,-117.082479154,11751,WBdo&The Pte,,West Bernardo Dr & The Pointe,,0,,11751
F-S/B,32.7534229116,1,,-117.165009888,12009,Front&Arbor (UCSD),,Front St & Arbor Dr (UCSD),,0,ucsdho,12009
F-S/B,32.7737184429,1,,-117.167537119,12006,Ulric&Fashion Hills,,Ulric St & Fashion Hills Bl,,0,,12006
F-S/B,32.789740244,1,,-117.167814678,12007,L Vsta&Fulton,,Linda Vista Rd & Fulton St,,0,,12007
F-S/B,32.7401659894,0,,-117.16918781,12004,Reynard&Curlew,,Reynard Wy & Curlew St,,0,,12004
N-S/B,32.7659330084,1,,-117.198649909,99853,Morena&Sherman,,Morena Bl & Sherman St,,0,,99853
F-S/B,32.7296187021,0,,-117.168983499,12003,State&Kalmia,,State St & Kalmia St,,0,,12003
N-S/B,32.7309460477,2,,-117.079830203,11759,54th&Laurel,,54th St & Laurel St,,0,,11759
M-Street-E/B,32.797687774,1,,-117.072860503,10660,Waring&Birchwood,,Waring Rd & Birchwood St,,0,,10660
N-S/B,32.7886477226,1,,-117.191713157,11595,Burgener&Jellett,,Burgener Bl & Jellett St,,0,,11595
M-Special_Loc,32.7025640429,2,,-116.354942,98070,Golden Acorn Casino&Same,,Golden Acorn Casino & Same,,0,,98070
F-S/B,32.7558221426,0,,-117.189544015,11597,Arista&Hickory,,Arista St & Hickory St,,0,arihic,11597
F-W/B,32.6483636105,2,,-116.366192484,98072,Hwy 94&Church,,Hwy 94 & Church Rd,,0,,98072
F-S/B,32.837352364,1,,-117.195926243,11591,Gnsee&Appleton,,Genesee Av & Appleton St,,0,,11591
N-W/B,32.7592311049,2,,-117.19663254,11590,Taylor&Presidio,,Taylor St & Presidio Dr,,0,,11590
M-Street-W/B,32.631991394,2,,-116.433888991,98077,Hwy 94&Shockey Truck Trail,,Hwy 94 & Shockey Truck Trail,,0,,98077
M-Street-S/B,32.8288286036,1,,-117.193487493,11592,Gnsee&Chateau,,Genesee Av & Chateau Dr,,0,,11592
M-Street-N/B,32.6501166866,2,,-116.48723462,98079,Buckman Sprgs&Freedom Ranch,,Buckman Springs Rd & Freedom Ranch,,0,,98079
F-W/B,32.628816984,2,,-116.472246696,98078,Hwy 94&Buckman Sprgs,,Hwy 94 & Buckman Springs Rd,,0,campo,98078
N-S/B,32.7545873885,0,,-117.189270634,11598,Presidio&Ampudia,,Presidio Dr & Ampudia St,,0,,11598
F-S/B,32.5996452154,1,,-117.051597442,99150,Hilltop&Orange,,Hilltop Dr & Orange Av,,0,hilora,99150
F-S/B,32.6612007349,1,,-116.960075073,99212,Lane&Proctor Vly,,Lane Av & Proctor Valley Rd,,0,,99212
N-S/B,32.6569269645,1,,-116.961964083,99213,Lane&Mackenzie Creek,,Lane Av & Mackenzie Creek Rd,,0,,99213
N-N/B,32.6275010424,1,,-117.036672849,99210,Oleander&Tlgrph Cyn,,Oleander Av & Telegraph Canyon Rd,,0,,99210
F-E/B,32.6617969069,1,,-116.964872435,99211,Proctor Vly&Rocking Horse,,Proctor Valley Rd & Rocking Horse Dr,,0,,99211
F-W/B,32.6625173516,1,,-116.9662332,99216,Proctor Vly&Rocking Horse,,Proctor Valley Rd & Rocking Horse Dr,,0,,99216
F-W/B,32.8095487263,1,,-117.11726101,99217,Aero&Murphy Cyn,,Aero Dr & Murphy Canyon Rd,,0,,99217
M-Street-N/B,32.6567138137,1,,-116.961751177,99214,Lane&Mackenzie Creek,,Lane Av & Mackenzie Creek Rd,,0,,99214
F-W/B,32.6617436471,1,,-116.960774771,99215,Proctor Vly&Lane,,Proctor Valley Rd & Lane Av,,0,,99215
F-S/B,32.8080778831,1,,-117.118880347,99218,Daley Ctr&Aero,,Daley Center Dr & Aero Dr,,0,,99218
F-S/B,32.6142081778,1,,-117.027341307,99152,Brandywine&E Palomar,,Brandywine Av & E Palomar St,,0,epame1,99152
M-TC-Bus,32.7101146422,1,,-117.086015814,94017,Euclid Av Sta,euctro,Euclid Ave Station,,0,euctro,94017
F-N/B,32.9055850427,0,,-117.108886174,13289,Scripps Ranch&Scripps Ranch,,Scripps Ranch Bl & Scripps Ranch Ct,,0,,13289
N-S/B,32.9054839522,0,,-117.109194719,13288,Scripps Ranch&Scripps Ranch,,Scripps Ranch Bl & Scripps Ranch Ct,,0,,13288
N-S/B,32.9084312975,0,,-117.110243373,13287,Scripps Ranch&Meanley,,Scripps Ranch Bl & Meanley Dr,,0,,13287
F-S/B,32.9111210989,1,,-117.109989458,13286,Scripps Ranch&Scripps Lake,,Scripps Ranch Bl & Scripps Lake Dr,,0,,13286
N-S/B,32.9139814366,0,,-117.110111926,13285,Scripps Ranch&Hibert,,Scripps Ranch Bl & Hibert St,,0,,13285
F-S/B,32.9163979856,0,,-117.111207653,13284,Scripps Ranch&Mra Msa,,Scripps Ranch Bl & Mira Mesa Bl,,0,,13284
M-TC-Bus,32.7543095694,1,,-117.199711976,94019,Old Town TC,oldttc,Old Town Transit Center,oldttc,0,ottc_w,94019
F-S/B,32.7495407635,0,,-117.171455018,11992,Goldfinch&Wshngtn,,Goldfinch St & Washington St,,0,golwas,11992
F-E/B,32.9805483752,1,,-117.077722901,13449,Carmel Mtn&Stoney Peak,,Carmel Mountain Rd & Stoney Peak Dr,,0,,13449
F-E/B,32.9788904888,1,,-117.081493243,13448,Carmel Mtn&Rcho Carmel (S),,Carmel Mountain Rd & Rancho Carmel Dr (S),,0,,13448
F-S/B,32.7284427847,1,,-117.026986462,12243,Skyline&Dayton,,Skyline Dr & Dayton Dr,,0,,12243
F-W/B,32.9802705292,1,,-117.078581187,13445,Carmel Mtn&Stoney Peak,,Carmel Mountain Rd & Stoney Peak Dr,,0,,13445
F-S/B,32.9828601167,1,,-117.076450022,13444,Carmel Mtn&Highland Ranch,,Carmel Mountain Rd & Highland Ranch Rd,,0,,13444
F-W/B,32.9790570313,1,,-117.082476366,13446,Carmel Mtn&Ranch Carmel (S),,Carmel Mountain Rd & Ranch Carmel Dr (S),,0,,13446
N-E/B,32.6967371643,1,,-117.098169394,13441,Logan&45th,,Logan Av & 45th St,,0,,13441
N-W/B,32.6969155378,1,,-117.097810303,13440,Logan&45th,,Logan Av & 45th St,,0,,13440
N-S/B,32.9858968623,1,,-117.075676327,13443,Carmel Mtn&Conference Way,,Carmel Mountain Rd & Conference Way,,0,,13443
F-S/B,32.9881352075,1,,-117.075514728,13442,Carmel Mtn&Rcho Carmel (N),,Carmel Mountain Rd & Rancho Carmel Dr (N),,0,,13442
F-E/B,32.7928996188,1,,-117.090443003,10628,Zion&Cartwright,,Zion Av & Cartwright St,,0,,10628
F-E/B,32.6967192188,1,,-117.089142549,10629,Logan&49th,,Logan Av & 49th St,,0,,10629
N-S/B,32.7422561649,0,,-117.170487734,11621,Reynard&Otsego,,Reynard Wy & Otsego Dr,,0,,11621
N-S/B,32.7882781219,1,,-117.169279971,11620,L Vsta&Ulric,,Linda Vista Rd & Ulric St,,0,,11620
M-Street-N/B,32.5767459447,1,,-117.034798785,99409,Dennery&Home Depot,,Dennery Rd & Home Depot Drwy,,0,,99409
F-N/B,32.7127134534,1,,-117.163686731,12750,1st&G,,1st Av & G St,,0,,12750
F-E/B,32.7552665073,1,,-117.09736674,10620,El Cjn&45th,,El Cajon Bl & 45th St,,0,,10620
F-E/B,32.7494838305,1,,-117.09614024,10621,Univ&Chamoune,,University Av & Chamoune Av,,0,,10621
F-E/B,32.6967161005,1,,-117.095633792,10622,Logan&46th,,Logan Av & 46th St,,0,,10622
F-E/B,32.7557227461,1,,-117.094160723,10623,El Cjn&Menlo,,El Cajon Bl & Menlo Av,,0,,10623
M-Street-E/B,32.7040256668,1,,-117.092631921,10624,Imperial&47th,,Imperial Av & 47th St,,0,imp47,10624
F-E/B,32.7112161956,1,,-117.092967245,10625,Mrkt&47th,,Market St & 47th St,,0,,10625
N-S/B,32.7423864913,1,,-117.101038194,12134,Fairmnt&Myrtle,,Fairmount Av & Myrtle Av,,0,,12134
N-S/B,32.7460147666,1,,-117.101001686,12135,Fairmnt&Landis,,Fairmount Av & Landis St,,0,,12135
F-E/B,32.8714648304,1,,-117.217860828,10400,LJ Vlge&Rgnts,,La Jolla Village Dr & Regents Rd,,0,,10400
F-E/B,32.851275863,1,,-117.21623535,10401,Governor&Rgnts,,Governor Dr & Regents Rd,,0,,10401
N-E/B,32.7551772135,1,,-117.132839551,10150,El Cjn&Utah,,El Cajon Bl & Utah St,,0,,10150
N-E/B,32.7483602339,1,,-117.132933867,10151,Univ&Utah,,University Av & Utah St,,0,,10151
F-E/B,32.8509502942,1,,-117.214987891,10404,Governor&Scripps,,Governor Dr & Scripps St,,0,,10404
N-E/B,32.809743645,1,,-117.132035981,10157,Aero&Corporate,,Aero Dr & Corporate Ct,,0,,10157
N-E/B,32.6958522799,1,,-117.132229225,10154,Natl&29th,,National Av & 29th St,,0,,10154
F-E/B,32.8284168543,1,,-117.213002487,10407,Cmnt Mesa&Moraga,,Clairemont Mesa Bl & Moraga Av,,0,,10407
F-E/B,32.8507242491,1,,-117.212960036,10408,Governor&Stadium,,Governor Dr & Stadium St,,0,,10408
F-E/B,32.873693585,1,,-117.209087965,10409,LJ Vlge&Executive,,La Jolla Village Dr & Executive Wy,,0,,10409
N-E/B,32.7115645894,1,,-117.130432593,10158,Mrkt&30th,,Market St & 30th St,,0,mark30,10158
N-E/B,32.8312645137,1,,-117.131261955,10159,Cmnt Mesa&Overland,,Clairemont Mesa Bl & Overland Av,,0,claove,10159
F-S/B,32.810451175,1,,-117.177632032,11976,Gnsee&Boyd,,Genesee Av & Boyd Av,,0,,11976
,32.6390065971,,,-117.098338738,baytro,baytro,,E Street Transit Center,etro,1,,
M-Street-E/B,32.8049645281,1,,-117.22340462,10390,Garnet&Soledad Mtn,,Garnet Av & Soledad Mountain Rd,,0,,10390
F-E/B,32.870592455,1,,-117.223248032,10391,LJ Vlge&Lebon,,La Jolla Village Dr & Lebon Dr,,0,,10391
F-E/B,32.7543622744,1,,-117.221537965,10392,WPt Loma&Groton,,West Point Loma Bl & Groton St,,0,wplgro,10392
,32.7773090349,0,,-117.056706925,75064,Alvarado,avlS_S,Alvarado Station,,0,avlS,75064
,32.7731649262,0,,-117.070371981,75063,SDSU TC,sdsutc,SDSU Transit Center,,0,sdsS,75063
F-E/B,32.8021853501,1,,-117.219615019,10395,Grand&Bond,,Grand Av & Bond St,,0,,10395
M-Street-E/B,32.8064449647,1,,-117.21688901,10396,Garnet&Mission Bay,,Garnet Av & Mission Bay Dr,,0,,10396
,32.7803978735,0,,-117.097384023,75060,Grantville,,Grantville Station,,0,frmS,75060
M-TC-Bus,33.0171939457,1,,-117.080997821,99506,Rcho Bdo Trnst Stn,,Rancho Bernardo Transit Station,,0,ranbrt,99506
F-E/B,32.8672316528,1,,-117.218618705,10399,Nobel&Rgnts,,Nobel Dr & Regents Rd,,0,regnob,10399
M-TC-Bus,33.0724096237,1,,-117.07046066,99504,Del Lago Trnst Stn,,Del Lago Transit Station,,0,lagbrt,99504
F-W/B,32.5569776845,1,,-116.936587765,99996,Siempre Viva&Pso dl Amrcas,,Siempre Viva Rd & Paseo De Las Americas,,0,,99996
,32.7095070273,0,,-117.085761026,75069,Euclid Ave,euctro,Euclid Ave Station,eucS,0,eucS_S,75069
,32.7095839639,0,,-117.086129117,75068,Euclid Ave,euctro,Euclid Ave Station,eucS,0,eucS_N,75068
N-E/B,32.8998777095,1,,-117.196751794,13199,Barnes Cyn&Lusk,,Barnes Canyon Rd & Lusk Bl,,0,,13199
M-TC-Train-E/B,32.899287407,1,,-117.200251076,13198,Barnes Cyn&10055,,Barnes Canyon Rd & 10055,,0,barcyn,13198
M-Street-E/B,32.8459295498,1,,-116.874389751,41003,Old80&14310,,Old Hwy 80 & 14310,,0,,41003
F-E/B,32.7114064109,1,,-117.161660769,13193,Mrkt&3rd,,Market St & 3rd Av,,0,,13193
M-Street-N/B,32.8288042293,1,,-117.205948972,13192,Clairemont&Cmnt Mesa,,Clairemont Dr & Clairemont Mesa Bl,clacla,0,claclN,13192
F-W/B,32.7115979901,1,,-117.161399413,13191,Mrkt&4th,,Market St & 4th Av,,0,,13191
M-TC-Train-N/B,32.5576560168,0,,-117.047061843,75002,Beyer Bl,beyS,Beyer Blvd Station,beyS,0,beyS_N,75002
M-Street-N/B,32.8981365005,1,,-117.202656067,13197,Scranton&SD Tech Ctr (9805),,Scranton Rd & SD Tech Center (9805),,0,scrtec,13197
N-N/B,32.8964840223,1,,-117.202735908,13196,Scranton&9605,,Scranton Rd & 9605,,0,,13196
F-N/B,32.894298313,1,,-117.201747913,13195,Scranton&Morehouse,,Scranton Rd & Morehouse Dr,,0,scrmor,13195
F-E/B,32.7489374422,1,,-117.081095722,13194,Univ&Shiloh,,University Av & Shiloh Rd,,0,,13194
F-E/B,32.7139195926,0,,-117.034830215,10714,Jamacha&Beacon,,Jamacha Rd & Beacon Dr,,0,,10714
M-Street-E/B,32.7095995668,1,,-117.033006967,10715,San Vicente&San Vicente,,San Vicente St & San Vicente Ct,,0,,10715
F-E/B,32.7604337828,1,,-117.032860257,10717,Univ&Parks,,University Av & Parks Av,,0,,10717
N-S/B,32.8685707457,1,,-117.213696972,99186,UTC TC,utc,UTC Transit Center,,0,utc,99186
F-N/B,32.7798284612,1,,-117.03567779,10711,Lake Murray&Shasta,,Lake Murray Bl & Shasta Ln,,0,,10711
F-E/B,32.7087982104,0,,-117.034979674,10712,San Vicente&Mdwbrk,,San Vicente St & Meadowbrook Dr,,0,,10712
F-E/B,32.7021046217,1,,-117.034708776,10713,Skyline&Deerock,,Skyline Dr & Deerock Pl,,0,,10713
N-W/B,32.882404663,1,,-117.193247722,99188,Eastgate Mall&Olson,,Eastgate Mall & Olson Dr,,0,,99188
F-W/B,32.8798136088,1,,-117.206017895,99189,Eastgate Mall&Judicial,,Eastgate Mall & Judicial Dr,,0,,99189
F-E/B,32.710823011,2,,-117.031649157,10719,San Vicente&Rytko,,San Vicente St & Rytko St,,0,,10719
F-E/B,32.8072476886,1,,-116.97871684,40179,Fletcher&Cuyamaca,,Fletcher Pkwy & Cuyamaca St,,0,,40179
F-E/B,32.808715248,0,,-116.97920416,40178,Fesler&Cuyamaca,,Fesler St & Cuyamaca St,,0,fescuy,40178
M-Street-W/B,32.7493468538,1,,-116.994597678,41172,Campo&9400,,Campo Rd & 9400,,0,,41172
F-E/B,32.7478401744,1,,-116.981357543,40176,Campo&Barcelona,,Campo Rd & Barcelona St,,0,,40176
F-N/B,32.9757807467,1,,-117.062231454,41176,Pomerado&Arbolitos Park (Sports Field),,Pomerado Rd & Arbolitos Park (Sports Field),,0,,41176
F-E/B,32.7077204234,1,,-116.99289044,40170,Jamacha&La Presa,,Jamacha Bl & La Presa Av,,0,,40170
N-N/B,32.8002605721,1,,-116.958016961,41174,Ballantyne&Madison,,Ballantyne St & Madison Av,,0,,41174
N-N/B,32.8055376639,1,,-116.95801383,41175,Ballantyne&Cedar,,Ballantyne St & Cedar St,,0,,41175
F-N/B,32.8443217195,2,,-116.881414379,40881,Lake Jennings Park&Old80,,Lake Jennings Park Rd & Old Hwy 80,,0,,40881
,32.7156503721,0,,-117.156629824,13315,Brdwy&9th,,Broadway & 9th Av,,0,,13315
M-Street-E/B,32.7113853986,0,,-117.111831487,10578,Mrkt&Gateway Ctr,,Market St & Gateway Center Wy,,0,,10578
F-E/B,32.960732441,1,,-117.113011358,10579,Carmel Mtn&Paseo Cardiel,,Carmel Mountain Rd & Paseo Cardiel,,0,cmrpas,10579
F-E/B,32.953353992,1,,-117.057900339,40886,Poway&Ridgedale,,Poway Rd & Ridgedale Dr,,0,,40886
M-Street-E/B,32.7114114585,0,,-117.11360682,10576,Mrkt&Gateway Ctr,,Market St & Gateway Center Dr,,0,,10576
F-S/B,32.7632384171,1,,-117.113835136,10577,Adams&Cherokee,,Adams Av & Cherokee Av,,0,cheada,10577
F-E/B,32.701169044,1,,-117.116562123,10570,Ocn Vw&36th,,Ocean View Bl & 36th St,,0,,10570
F-E/B,32.7114349011,0,,-117.116142877,10571,Mrkt&36th,,Market St & 36th St,,0,,10571
F-E/B,32.7496891597,1,,-117.116453886,10572,Univ&Wilson,,University Av & Wilson Av,,0,35univ,10572
M-Street-W/B,32.7596779631,1,,-117.17650539,13067,Hotel Cir N&1550,,Hotel Circle N & 1550,,0,,13067
M-Street-W/B,32.7597629444,1,,-117.181281484,13066,Hotel Cir N&1904,,Hotel Circle N & 1904,,0,,13066
M-Street-W/B,32.728705478,1,,-117.18408144,13065,N Harbor&Cell Phone Lot,,N Harbor Dr & Cell Phone Lot,,0,,13065
,32.6992091302,2,,-117.169719703,99439,Crndo Ferry Landing,,Coronado Ferry Landing,,0,1stfer,99439
N-E/B,32.7497742111,1,,-117.166312021,10088,Wshngtn&Albatross,,Washington St & Albatross St,,0,,10088
N-N/B,32.6366000396,1,,-117.082457412,30407,4th&G,,4th Av & G St,,0,,30407
N-E/B,32.792893296,1,,-117.171436793,10084,Osler&Gnsee,,Osler St & Genesee Av,,0,,10084
N-E/B,32.8779366935,1,,-117.168656585,10085,Miramar&Milch,,Miramar Rd & Milch Rd,,0,,10085
N-E/B,32.715568902,1,,-117.166684701,10086,Brdwy&State,,Broadway & State St,,0,amplza,10086
N-N/B,32.6262163103,1,,-117.078371006,30409,4th&J,,4th Av & J St,,0,,30409
N-E/B,32.7517282971,0,,-117.175166303,10080,Lewis&Ingalls,,Lewis St & Ingalls St,,0,,10080
N-E/B,32.7925707773,1,,-117.173034421,10082,Osler&Ulric,,Osler St & Ulric St,,0,,10082
F-W/B,32.7591520847,1,,-117.071885789,11406,El Cjn&Alice,,El Cajon Bl & Alice St,,0,,11406
F-W/B,32.8657985941,1,,-117.20889118,13267,Nobel&Towne Centre,,Nobel Dr & Towne Centre Dr,,0,,13267
N-S/B,32.7136158822,0,,-117.247972806,13260,Catalina&Garden,,Catalina Bl & Garden Ln,,0,,13260
F-E/B,32.8725550207,1,,-117.213413931,13263,LJ Vlge&Gnsee,,La Jolla Village Dr & Genesee Av,,0,ljgenE,13263
F-N/B,32.6200511634,0,,-117.075958557,30464,4th&L,,4th Av & L St,,0,4thl,30464
F-S/B,33.0182006316,1,,-117.060999027,12954,Pomerado&Espola,,Pomerado Rd & Espola Rd,,0,pomran,12954
N-W/B,32.8002816235,1,,-116.929323961,40318,Madison&E Main,,Madison Av & E Main St,,0,,40318
F-N/B,32.5760225763,1,,-117.055732665,12957,Picador&Cedar Glen,,Picador Bl & Cedar Glen Wy,,0,,12957
F-N/B,32.5788959887,1,,-117.058894687,12950,Picador&Arey,,Picador Bl & Arey Dr,,0,,12950
N-N/B,32.7457125729,1,,-117.058477984,12952,Coll&Billman,,College Av & Billman St,,0,,12952
N-W/B,32.7809043741,1,,-117.010465463,12986,Grossmont Ctr&Ctr,,Grossmont Center Dr & Center Dr,,0,,12986
N-W/B,32.800276371,1,,-116.934752089,40315,Madison&2nd,,Madison Av & 2nd St,,0,,40315
N-W/B,32.7928063648,1,,-116.932705799,40317,Lexington&Ivory,,Lexington Av & Ivory Av,,0,,40317
N-W/B,32.7877839822,1,,-116.933369695,40316,Wshngtn&Dorothy,,Washington Av & Dorothy St,,0,,40316
F-E/B,32.8564939852,2,,-116.927204889,40089,Woodside&Emerald Hill,,Woodside Av & Emerald Hill Ln,,0,,40089
F-S/B,32.8615010557,0,,-117.253388628,11847,LJ Shores&Cmo Del Collado,,La Jolla Shores Dr & Camino Del Collado,,0,,11847
M-TC-Bus,32.7917058471,0,,-116.975780043,91076,El Cjn TC,ecajtc,El Cajon Transit Center,,0,ecajtc,91076
M-TC-Bus,32.7917833938,0,,-116.975679808,91074,El Cjn TC,ecajtc,El Cajon Transit Center,,0,ecajtc,91074
F-S/B,32.776076294,1,,-117.252392721,11846,Mission&San Luis Obisbo,,Mission Bl & San Luis Obisbo Pl,,0,,11846
F-S/B,32.8391451651,2,,-116.933280096,40864,Wtr Gdns&Gay Rio,,Winter Gardens Bl & Gay Rio Dr,,0,,40864
F-S/B,32.7823581607,1,,-117.252552066,11845,Mission&Santa Clara,,Mission Bl & Santa Clara Pl,,0,,11845
N-E/B,32.7875870469,1,,-116.929213027,40087,Wshngtn&Jamacha,,Washington Av & Jamacha Rd,,0,wasjam,40087
N-E/B,32.8001520203,1,,-116.931395945,40086,Madison&E Main,,Madison Av & E Main St,,0,,40086
F-S/B,32.7781325927,1,,-117.252682915,11843,Mission&El Carmel,,Mission Bl & El Carmel Pl,,0,,11843
F-E/B,32.5836505449,1,,-117.061447677,60095,Palm&Beyer,,Palm Av & Beyer Wy,,0,beypa1,60095
M-Street-W/B,32.9566350633,1,,-117.043563177,40951,Poway&13236,,Poway Rd & 13236,,0,,40951
M-Street-W/B,32.8384133417,1,,-116.975807048,40957,Msn Grg&10201,,Mission Gorge Rd & 10201,,0,,40957
F-S/B,32.7414439686,2,,-117.253159784,11841,Cable&Crndo,,Cable St & Coronado Av,,0,,11841
F-N/B,32.9907053422,1,,-117.05798286,40779,Pomerado&Roberto,,Pomerado Rd & Roberto Wy,,0,,40779
F-N/B,33.0148417568,1,,-117.058514785,40778,Pomerado&Cmto Vecinos,,Pomerado Rd & Caminito Vecinos,,0,,40778
F-W/B,32.6376108638,1,,-117.066114858,30240,H&Hilltop,,H St & Hilltop Dr,,0,hsthil,30240
F-W/B,32.6079726864,0,,-117.062567555,30241,Palomar&2nd,,Palomar St & 2nd Av,,0,,30241
F-N/B,32.9853824819,1,,-117.059939543,40775,Pomerado&Nazas,,Pomerado Rd & Nazas Dr,,0,,40775
F-N/B,32.9813471154,1,,-117.062126374,40773,Pomerado&Colony,,Pomerado Rd & Colony Dr,,0,pomcol,40773
F-N/B,32.9740489858,1,,-117.06226436,40772,Pomerado&Glen Oak,,Pomerado Rd & Glen Oak Rd,,0,,40772
F-N/B,32.9702447576,1,,-117.062313977,40771,Pomerado&Holland,,Pomerado Rd & Holland Rd,,0,,40771
F-N/B,32.9663745691,1,,-117.06236298,40770,Pomerado&Vaughan,,Pomerado Rd & Vaughan Rd,,0,,40770
N-N/B,32.7355484815,1,,-117.129218595,12482,30th&Palm,,30th St & Palm St,,0,,12482
N-N/B,32.739151937,1,,-117.129196011,12483,30th&Thorn,,30th St & Thorn St,,0,,12483
N-N/B,32.7284926138,1,,-117.130052173,12480,30th&Ivy,,30th St & Ivy St,,0,,12480
N-N/B,32.731485015,1,,-117.129382918,12481,30th&Laurel,,30th St & Laurel St,,0,,12481
F-E/B,32.8076143843,1,,-116.928853294,40221,Brdwy&Coleen,,Broadway & Coleen Ct,,0,,40221
N-N/B,32.8326427487,1,,-117.126454297,12487,Ruffin&Farnham,,Ruffin Rd & Farnham St,,0,ruffar,12487
F-E/B,32.7449115064,1,,-116.928721454,40223,Jamacha&Willow Glen,,Jamacha Rd & Willow Glen Dr,,0,,40223
F-N/B,32.8198362683,1,,-117.126619759,12485,Ruffin&Ridgehaven,,Ruffin Rd & Ridgehaven Ct,,0,rufrid,12485
N-N/B,32.6901076686,1,,-117.12182936,12488,Main&Rigel,,Main St & Rigel St,,0,,12488
N-N/B,32.9024705207,1,,-117.123852896,12489,Black Mtn&Carroll Cyn,,Black Mountain Rd & Carroll Canyon Rd,,0,,12489
N-W/B,32.8078303071,1,,-116.947803115,40308,Brdwy&Anza,,Broadway & Anza St,,0,,40308
N-S/B,32.7985971676,1,,-116.958117485,40559,Ballantyne&Park,,Ballantyne St & Park Av,,0,,40559
F-N/B,33.0094188457,1,,-117.023717309,40795,Espola&Morning Air,,Espola Rd & Morning Air Rd,,0,,40795
F-N/B,33.007708575,1,,-117.023832726,40794,Espola&Lake Poway,,Espola Rd & Lake Poway Rd,,0,,40794
F-N/B,33.0024113637,1,,-117.02353817,40797,Espola&Sandhill,,Espola Rd & Sandhill Rd,,0,,40797
F-W/B,32.6091015947,0,,-117.05849937,30184,Palomar&1st,,Palomar St & 1st Av,,0,,30184
F-E/B,32.6671751986,1,,-117.103220638,59003,18th&Natl City,,18th St & National City Bl,,0,nat18t,59003
N-N/B,32.9607886539,1,,-117.036147712,40790,Midland&Cynthia,,Midland Rd & Cynthia Ln,,0,,40790
F-N/B,32.9897715967,2,,-117.024343332,40793,Espola&High Vly,,Espola Rd & High Valley Rd,,0,,40793
F-N/B,32.6584252996,1,,-117.095451866,50080,D&30th,,D Av & 30th St,,0,,50080
F-W/B,32.6895257513,1,,-117.085596322,50081,Division&Euclid,,Division St & Euclid Av,,0,diveuc,50081
M-Street-W/B,32.6726872981,1,,-117.084146668,50082,18th&Newell,,18th St & Newell St,,0,,50082
F-W/B,32.6736080304,1,,-117.080892721,50083,18th&Prospect,,18th St & Prospect St,,0,,50083
F-N/B,32.9565819255,1,,-117.019349885,40799,Neddick&Garden,,Neddick Av & Garden Rd,,0,,40799
F-W/B,32.6795087797,1,,-117.080932074,50085,Pza&Euclid,,Plaza Bl & Euclid Av,,0,plzeu1,50085
F-W/B,32.6914497714,2,,-117.078662132,50086,Division&Harbison,,Division St & Harbison Av,,0,,50086
F-W/B,32.7823366884,1,,-117.191408158,11194,Milton&Northaven,,Milton St & Northaven Av,,0,,11194
F-W/B,32.7955432145,1,,-117.251498119,11119,Grand&Cass,,Grand Av & Cass St,,0,,11119
F-S/B,32.8467624998,1,,-117.267941425,11111,Try Pines&Prospect,,Torrey Pines Rd & Prospect St,,0,,11111
F-W/B,32.8085809855,1,,-117.260092328,11113,Turquoise&Mission,,Turquoise St & Mission Bl,,0,,11113
F-S/B,32.8489937283,1,,-117.262662909,11112,Try Pines&Princess,,Torrey Pines Rd & Princess St,,0,,11112
N-W/B,32.7971046904,1,,-117.253491214,11115,Garnet&Bayard,,Garnet Av & Bayard St,,0,baygar,11115
M-Street-W/B,33.0967583545,2,,-116.475364713,98006,Hwy 78&Butterfieldage,,Hwy 78 & Butterfield Stage,,0,,98006
N-W/B,32.7975127586,1,,-117.251640927,11117,Garnet&Cass,,Garnet Av & Cass St,,0,,11117
F-W/B,32.7390713816,1,,-117.252895369,11116,Orchard&Sunset Cliffs,,Orchard Av & Sunset Cliffs Bl,,0,orcsun,11116
F-W/B,32.6343613323,1,,-117.077775105,30226,H&3rd,,H St & 3rd Av,,0,h3rd,30226
M-Street-S/B,33.077873024,2,,-116.43820836,98007,Great Southern Overland Rte Of 1849&Shelter Vall,,Great Southern Overland Rte Of 1849 & Shelter Vall,,0,,98007
N-S/B,32.6459922219,1,,-117.001534943,30332,Otay Lakes&Shopping Ctr,,Otay Lakes Rd & Shopping Center Drwy,,0,,30332
,32.780314706,,,-117.097207529,gratro,gratro,,Grantville Trolley Station,,1,,
F-W/B,32.755905103,1,,-117.04048984,11447,Univ&Yale,,University Av & Yale Av,,0,,11447
N-W/B,32.6512823633,0,,-116.975969621,30339,Lakeshore&Brookstone,,Lakeshore Dr & Brookstone Rd,,0,,30339
F-S/B,32.7795574256,1,,-117.040246618,11446,Lake Murray&Kiowa,,Lake Murray Bl & Kiowa Dr,,0,,11446
F-W/B,32.7689448377,1,,-117.040779273,11445,El Cjn&73rd,,El Cajon Bl & 73rd St,,0,elc73,11445
N-N/B,32.7019284535,1,,-117.030419548,12578,Mdwbrk&Skyline,,Meadowbrook Dr & Skyline Dr,,0,,12578
F-W/B,32.7252629405,2,,-116.969415881,40423,Jamacha&Swtwter Sprgs,,Jamacha Bl & Sweetwater Springs Bl,,0,,40423
F-W/B,32.8385680124,1,,-116.970514518,40422,Msn Grg&Edgemoor,,Mission Gorge Rd & Edgemoor Dr,,0,,40422
F-W/B,32.7877886311,1,,-116.971198885,40420,Wshngtn&Johnson,,Washington Av & Johnson Av,,0,,40420
F-N/B,32.7298927453,1,,-117.129506854,12828,30th&Juniper,,30th St & Juniper St,,0,,12828
F-W/B,32.6423836563,1,,-117.090035536,30220,E&5th,,E St & 5th Av,,0,,30220
F-W/B,32.8588237316,1,,-116.968723228,40425,2nd&Carreta,,2nd St & Carreta Dr,,0,,40425
N-W/B,32.7877507935,1,,-116.970147584,40424,Wshngtn&Johnson,,Washington Av & Johnson Av,,0,,40424
F-N/B,32.7487985411,1,,-117.130059847,12824,30th&Univ,,30th St & University Av,,0,30uniN,12824
F-W/B,32.7318755122,1,,-116.96520678,40429,Austin&Moorpark,,Austin Dr & Moorpark Ct,,0,,40429
F-W/B,32.6406452498,1,,-117.082541063,30221,F&Garrett,,F St & Garrett Av,,0,,30221
F-N/B,32.7508380448,1,,-117.130044441,12820,30th&Lincoln,,30th St & Lincoln Av,,0,,12820
F-N/B,32.7576019463,1,,-117.130069721,12821,30th&Meade,,30th St & Meade Av,,0,,12821
F-N/B,32.759415903,1,,-117.130078083,12822,30th&Monroe,,30th St & Monroe Av,,0,,12822
F-N/B,32.7558978758,1,,-117.130068962,12823,30th&El Cjn,,30th St & El Cajon Bl,,0,,12823
F-W/B,32.7581896434,1,,-117.07771229,11025,El Cjn&Dayton,,El Cajon Bl & Dayton St,,0,,11025
N-W/B,32.6989757487,1,,-117.077344871,11024,Olvera&San Onofre,,Olvera Av & San Onofre Ter,,0,,11024
N-W/B,32.7159611892,1,,-117.075332493,11027,Roswell&56th,,Roswell St & 56th St,,0,,11027
N-W/B,32.7427774737,0,,-117.077092693,11026,Strmvw&55th,,Streamview Dr & 55th St,,0,,11026
M-Street-W/B,32.7486259714,1,,-117.078367252,11021,Univ&54th,,University Av & 54th St,,0,,11021
M-Street-W/B,32.7260937479,2,,-117.080008875,11020,Grape&Champion,,Grape St & Champion St,,0,,11020
N-W/B,32.7147738621,2,,-117.078608312,11023,Roswell&Hanover,,Roswell St & Hanover St,,0,,11023
N-W/B,32.707224112,1,,-117.078553599,11022,Imperial&54th,,Imperial Av & 54th St,,0,,11022
N-S/B,33.0695754685,2,,-116.43095054,98008,Great Southern Overland Rte Of 1849&Great Sandy,,Great Southern Overland Rte Of 1849 & Great Sandy,,0,,98008
M-TC-Bus,32.6416837799,0,,-116.996368917,92254,Southwestern Coll TC,swcoll,Southwestern College Transit Center,,0,swcoll,92254
N-W/B,32.7101171989,2,,-117.072143809,11029,Mrkt&Radio,,Market St & Radio Dr,,0,,11029
M-TC-Bus,32.641313763,0,,-116.995745333,92252,Southwestern Coll TC,swcoll,Southwestern College Transit Center,,0,swcoll,92252
M-TC-Bus,32.6414361993,0,,-116.99595102,92251,Southwestern Coll TC,swcoll,Southwestern College Transit Center,,0,swcoll,92251
M-Street-E/B,33.0606303687,2,,-116.424577324,98009,Great Southern Overland Rte Of 1849&Horse Camp C,,Great Southern Overland Rte Of 1849 & Horse Camp C,,0,sheval,98009
N-E/B,32.837687177,1,,-116.779617576,40099,Alpine&Tavern,,Alpine Bl & Tavern Rd,,0,alpshp,40099
N-N/B,32.7706699485,1,,-117.046907577,12573,70th&Saranac,,70th St & Saranac St,,0,,12573
F-N/B,32.7488356692,0,,-117.146283422,13550,Park&Univ,,Park Bl & University Av,,0,paruni,13550
N-E/B,32.7704254542,1,,-117.008507654,10333,La Mesa&Jackson,,La Mesa Bl & Jackson Dr,,0,,10333
N-E/B,32.7876139531,1,,-116.974275586,99241,Wshngtn&Grossmont,,Washington Av & Grossmont Av,,0,,99241
N-W/B,32.7414680446,1,,-117.214995473,11568,Rosecrans&Goldsmith,,Rosecrans St & Goldsmith St,,0,,11568
F-S/B,32.8309556898,1,,-117.215921148,11569,Rgnts&Luna,,Regents Rd & Luna Av,,0,,11569
F-W/B,32.8959218206,1,,-117.193617467,99202,Mra Msa&Lusk,,Mira Mesa Bl & Lusk Bl,,0,,99202
N-W/B,32.725817445,1,,-117.228315079,11560,Rosecrans&Garrison,,Rosecrans St & Garrison St,,0,,11560
N-W/B,32.7372566521,1,,-117.218585136,11564,Rosecrans&Zola,,Rosecrans St & Zola St,,0,,11564
N-W/B,32.71156054,0,,-117.097665069,11368,Mrkt&45th,,Market St & 45th St,,0,,11368
F-W/B,32.7554676931,1,,-117.097287358,11369,El Cjn&Chamoune,,El Cajon Bl & Chamoune Av,,0,,11369
F-W/B,32.7042894481,1,,-117.101843938,11367,Imperial&Greenwood Cemetery,,Imperial Av & Greenwood Cemetery,,0,,11367
F-W/B,32.7552158395,1,,-117.099539037,11364,El Cjn&Highland,,El Cajon Bl & Highland Av,,0,,11364
F-W/B,32.7005803156,0,,-117.098459921,11365,Ocn Vw&45th,,Ocean View Bl & 45th St,,0,,11365
F-W/B,32.7371642043,1,,-117.102649534,11361,Poplar&Columbine,,Poplar St & Columbine St,,0,,11361
F-W/B,32.6769557458,1,,-117.090212142,50066,Pza&Palm,,Plaza Bl & Palm Av,,0,plzplm,50066
N-W/B,32.6881114098,1,,-117.090685722,50067,Division&N R,,Division St & N R Av,,0,,50067
N-N/B,32.7454173847,1,,-117.092209152,60637,Euclid&Castle,,Euclid Av & Castle Av,,0,euccas,60637
N-W/B,32.6713650388,1,,-117.08904102,50065,18th&N,,18th St & N Av,,0,,50065
N-W/B,32.6593740421,1,,-117.090957658,50062,30th&Highland,,30th St & Highland Av,,0,30high,50062
F-W/B,32.6771085795,2,,-117.092384457,50063,Pza&N,,Plaza Bl & N Av,,0,,50063
F-W/B,32.6773624615,2,,-117.094645492,50060,Pza&L,,Plaza Bl & L Av,,0,,50060
M-TC-Bus,32.7099554215,1,,-117.085581921,91040,Euclid Av Sta,euctro,Euclid Ave Station,,0,euctro,91040
N-W/B,32.6719651851,1,,-117.086875999,50068,18th&Palm,,18th St & Palm Av,,0,,50068
F-W/B,32.7752812621,1,,-117.027184906,12973,Baltimore&Parkway,,Baltimore Dr & Parkway Dr,,0,,12973
N-N/B,32.7345416657,0,,-117.026988206,12579,Skyline&Palm,,Skyline Dr & Palm St,,0,,12579
F-N/B,32.7981389362,1,,-117.171608836,12727,Gnsee&Park Mesa,,Genesee Av & Park Mesa Wy,,0,,12727
N-N/B,32.7471676861,0,,-117.171235057,12726,Goldfinch&Bush,,Goldfinch St & Bush St,,0,,12726
F-N/B,32.745370101,0,,-117.171242281,12725,Goldfinch&Pennsylvania,,Goldfinch St & Pennsylvania Av,,0,,12725
F-N/B,32.7837576382,1,,-117.171380259,12724,L Vsta&Comstock,,Linda Vista Rd & Comstock St,,0,comlin,12724
F-E/B,32.7565390695,0,,-117.087705393,13555,El Cjn&Winona,,El Cajon Bl & Winona Av,,0,,13555
F-N/B,32.7810557938,1,,-117.17249077,12721,L Vsta&Tait,,Linda Vista Rd & Tait St,,0,,12721
N-E/B,32.8312754939,1,,-117.127016905,10180,Cmnt Mesa&Ruffin,,Clairemont Mesa Bl & Ruffin Rd,,0,,10180
N-W/B,32.7497205208,2,,-117.100491064,10989,Univ&Fairmnt,,University Av & Fairmount Av,,0,unifai,10989
N-W/B,32.6969453203,1,,-117.101067612,10987,Logan&Dominion,,Logan Av & Dominion St,,0,,10987
N-W/B,32.7552888752,1,,-117.10170277,10986,El Cjn&43rd,,El Cajon Bl & 43rd St,,0,faielc,10986
N-W/B,32.7359615816,2,,-117.104062257,10981,Poplar&Marlborough,,Poplar St & Marlborough Av,,0,,10981
N-W/B,32.7349281234,1,,-117.105255453,10980,Poplar&Snowdrop,,Poplar St & Snowdrop St,,0,,10980
M-Street-W/B,32.7115887388,1,,-117.10234687,10983,Mrkt&Denby,,Market St & Denby St,,0,,10983
F-W/B,32.7006082651,1,,-117.101184241,10982,Ocn Vw&Mrktplace,,Ocean View Bl & Marketplace Av,,0,,10982
F-N/B,32.6333983767,1,,-116.967000482,39016,Eastlake&Corte Vista,,Eastlake Pkwy & Corte Vista,,0,,39016
F-N/B,32.6366853105,1,,-116.967040189,39017,Eastlake&Trinidad Cove,,Eastlake Pkwy & Trinidad Cove,,0,,39017
F-W/B,32.7485643878,1,,-117.130519354,11298,Univ&30th,,University Av & 30th St,,0,uni30t,11298
F-W/B,32.6960248546,1,,-117.129617553,11299,Natl&30th,,National Av & 30th St,,0,,11299
F-W/B,32.5950301494,1,,-117.029821752,39012,Auto Park&Brandywine,,Auto Park Dr & Brandywine Av,,0,,39012
M-Street-W/B,32.5950469399,0,,-117.03194203,39013,Auto Park&Oleander,,Auto Park Dr & Oleander Av,,0,,39013
F-S/B,32.607882695,1,,-117.027974001,39010,Brandywine&Olympic,,Brandywine Av & Olympic Pkwy,,0,,39010
F-S/B,32.6017364,1,,-117.029390712,39011,Brandywine&Sequoia,,Brandywine Av & Sequoia St,,0,,39011
F-W/B,32.8938526189,1,,-117.134472434,11292,Miramar&Cmo Ruiz,,Miramar Rd & Camino Ruiz,,0,cammir,11292
F-W/B,32.7554796443,1,,-117.132826318,11290,El Cjn&Utah,,El Cajon Bl & Utah St,,0,,11290
F-W/B,32.7629766471,1,,-117.132956749,11291,Adams&Utah,,Adams Av & Utah St,,0,,11291
F-W/B,32.755493327,1,,-117.130526803,11296,El Cjn&30th,,El Cajon Bl & 30th St,,0,elc30,11296
F-W/B,32.7629826211,1,,-117.130582143,11297,Adams&30th,,Adams Av & 30th St,,0,30ada,11297
F-W/B,32.9137414177,1,,-117.133235444,11294,Mra Msa&Greenford,,Mira Mesa Bl & Greenford Dr,,0,,11294
F-W/B,32.8315963628,1,,-117.131362942,11295,Cmnt Mesa&Overland,,Clairemont Mesa Bl & Overland Av,,0,,11295
F-E/B,32.783738013,1,,-117.198285298,10424,Milton&Illion,,Milton St & Illion St,,0,,10424
F-W/B,32.6969065549,1,,-117.086651185,11382,Logan&Euclid,,Logan Av & Euclid Av,,0,logeuc,11382
F-N/B,32.5828161828,2,,-116.633494287,98118,Sr 188&Humphries,,Sr 188 & Humphries Rd,,0,,98118
F-W/B,32.6120817576,2,,-116.707439433,98119,Hwy 94&Barrett Lake,,Hwy 94 & Barrett Lake Rd,,0,barjcn,98119
M-Street-N/B,32.5785003118,2,,-116.628444123,98117,Sr 188&Tecate Mart,,Sr 188 & Tecate Mart,,0,tecate,98117
M-Street-N/B,33.0217626041,1,,-117.08130531,13157,WBdo&16911,,West Bernardo Dr & 16911,,0,,13157
N-W/B,32.5837853309,1,,-117.050723318,60483,Palm&Piccard,,Palm Av & Piccard Av,,0,,60483
N-W/B,32.5838351344,1,,-117.044944952,60482,Palm&Twining,,Palm Av & Twining Av,,0,,60482
F-W/B,32.5838536035,1,,-117.042078596,60481,Palm&Delcardo,,Palm Av & Delcardo Av,,0,,60481
M-Street-E/B,32.5995859229,2,,-116.581802656,98111,Hwy 94&Harris Ranch,,Hwy 94 & Harris Ranch Rd,,0,,98111
M-Street-E/B,32.7495437786,1,,-117.108548964,13523,Univ&I-15 Transit Pza,,University Av & I-15 Transit Plaza,,0,i15uni,13523
N-E/B,32.7556694548,1,,-117.040377135,13521,Univ&Yale,,University Av & Yale Av,,0,,13521
N-S/B,32.5500980895,1,,-117.036752404,60249,San Ysidro&Virginia,,San Ysidro Bl & Virginia Av,,0,,60249
M-Street-W/B,32.7498321803,1,,-117.108971343,13524,Univ&I-15 Transit Pza,,University Av & I-15 Transit Plaza,,0,i15uni,13524
F-E/B,32.7525058422,1,,-117.22898873,13525,WPt Loma&Famosa,,West Point Loma Bl & Famosa Bl,,0,,13525
N-S/B,32.5598598076,1,,-117.050947408,60245,Beyer&Poplar,,Beyer Bl & Poplar St,,0,beytro,60245
F-E/B,32.7550361274,1,,-117.105658822,13528,El Cjn&Marlborough,,El Cajon Bl & Marlborough Av,,0,,13528
N-S/B,32.5539667882,0,,-117.048031648,60246,Cottonwood&San Ysidro,,Cottonwood Rd & San Ysidro Bl,,0,sancot,60246
N-S/B,32.5953556753,0,,-117.075604078,60241,Brdwy&Main,,Broadway & Main St,,0,,60241
N-S/B,32.9700648914,1,,-117.09530977,11741,Carmel Mtn&Cuca,,Carmel Mountain Rd & Cuca St,,0,cmrcuc,11741
F-S/B,32.7269715876,1,,-117.16124299,12039,4th&Hawthorn,,4th Av & Hawthorn St,,0,,12039
N-S/B,32.6511243988,1,,-117.088341668,11743,4th&C,,4th Av & C St,,0,,11743
N-W/B,33.0062120196,1,,-117.090614586,11744,Bdo Ctr&Maturin,,Bernardo Center Dr & Maturin Dr,,0,bermat,11744
N-S/B,32.6472375339,1,,-117.086797337,11745,4th&D,,4th Av & D St,,0,,11745
F-N/B,32.9640411183,1,,-117.062360975,40769,Pomerado&Mdwbrk,,Pomerado Rd & Meadowbrook Ln,,0,,40769
N-S/B,32.6454831551,1,,-117.086111478,11748,4th&Flower,,4th Av & Flower St,,0,,11748
F-S/B,32.6980048929,1,,-117.085185855,11749,Euclid&La Paz,,Euclid Av & La Paz Dr,,0,,11749
F-S/B,32.7151453682,1,,-117.161156489,12031,4th&Brdwy,,4th Av & Broadway,,0,4thbro,12031
F-S/B,32.7353375973,1,,-117.161306737,12037,4th&Palm,,4th Av & Palm Av,,0,,12037
M-Street-S/B,32.7172533417,1,,-117.16117503,12036,4th&B,,4th Av & B St,,0,4thB,12036
F-S/B,32.7195455718,1,,-117.161179219,12035,4th&Ash,,4th Av & Ash St,,0,,12035
F-S/B,32.7123615282,1,,-117.161101704,12034,4th&G,,4th Av & G St,,0,4thg,12034
M-Street-E/B,32.668580246,2,,-116.288214746,98062,Old80&39961 (Candy Cottage),,Old Hwy 80 & 39961 (Candy Cottage),,0,,98062
M-Street-W/B,32.6688038204,2,,-116.293621807,98063,Old80&39718 (Mtn Top Mrkt),,Old Hwy 80 & 39718 (Mountain Top Market),,0,,98063
M-Street-W/B,32.6173469899,2,,-116.190287456,98060,Old80&Jacumba,,Old Hwy 80 & Jacumba Rd,,0,,98060
M-Street-W/B,32.6685776815,2,,-116.287616861,98061,Old80&39998 (Boulevard Coin Shop),,Old Hwy 80 & 39998 (Boulevard Coin Shop),,0,,98061
M-Street-S/B,32.8448832183,0,,-117.200236742,11582,Gnsee&Hwy 52 (Ramp),,Genesee Av & Hwy 52 (Ramp),,0,,11582
N-S/B,32.7680614811,1,,-117.199577213,11583,Morena&W Morena,,Morena Bl & W Morena Bl,,0,,11583
M-Street-S/B,32.8074742283,1,,-117.201151147,11580,Clairemont&3660,,Clairemont Dr & 3660,,0,,11580
M-Street-S/B,32.8152169867,1,,-117.201130638,11581,Clairemont&Dalles,,Clairemont Dr & Dalles Av,,0,,11581
N-E/B,32.6682814603,2,,-116.301192553,98068,Old80&Hwy 94 (Boulevard Liqour),,Old Hwy 80 & Hwy 94 (Boulevard Liqour),,0,boulev,98068
M-Special_Loc,32.6873941671,2,,-116.335400813,98069,Live Oaks Trail&Old80,,Live Oaks Trail & Old Hwy 80,,0,livoak,98069
M-Street-S/B,32.8043399212,1,,-117.199851284,11588,Clairemont&3502,,Clairemont Dr & 3502,,0,,11588
F-S/B,32.7473515427,1,,-117.198121355,11589,Pcfc Hwy&Sports Arena,,Pacific Hwy & Sports Arena Bl,,0,,11589
N-E/B,32.8817772831,1,,-117.156250287,10107,Miramar&Carroll,,Miramar Rd & Carroll Rd,,0,,10107
F-E/B,32.8800234536,1,,-117.159281055,13003,Miramar&Miramar Way,,Miramar Rd & Miramar Way,,0,,13003
F-W/B,32.7878027349,1,,-116.962618613,40436,Wshngtn&Magnolia,,Washington Av & Magnolia Av,,0,,40436
F-N/B,32.9051768684,1,,-117.170922116,12402,Cmo Santa Fe&Flanders,,Camino Santa Fe & Flanders Dr,,0,camfla,12402
F-S/B,32.8168121762,1,,-117.154914297,99227,Convoy&Othello,,Convoy St & Othello Av,,0,,99227
F-W/B,32.8219257634,1,,-117.150217594,99226,Balboa&Mercury,,Balboa Av & Mercury St,,0,,99226
N-E/B,32.8216387124,1,,-117.149628734,99225,Balboa&Mercury,,Balboa Av & Mercury St,,0,,99225
F-E/B,32.8216492592,1,,-117.154205569,99224,Balboa&Convoy,,Balboa Av & Convoy St,,0,,99224
N-N/B,32.8169436124,1,,-117.154606426,99223,Convoy&Othello,,Convoy St & Othello Av,,0,,99223
M-Street-S/B,32.7339630202,1,,-117.027220491,12242,Skyline&Palm,,Skyline Dr & Palm St,,0,,12242
F-W/B,32.8104234747,1,,-117.151314004,99221,Aero&Kearny Villa,,Aero Dr & Kearny Villa Rd,,0,,99221
F-W/B,32.8087367452,1,,-117.119381556,99220,Aero&Ruffin,,Aero Dr & Ruffin Rd,,0,,99220
N-E/B,32.5838498335,1,,-117.125451424,60069,Palm&4th,,Palm Av & 4th St,,0,,60069
F-N/B,32.6574566468,1,,-117.09962088,60068,Natl City&30th,,National City Bl & 30th St,,0,,60068
F-W/B,32.6845896345,1,,-117.051625426,60799,Potomac&Alta View,,Potomac St & Alta View Dr,,0,,60799
M-TC-Bus,32.7410962867,1,,-117.056617683,94003,Grove TC,,Grove Transit Center,,0,colgrv,94003
M-TC-Bus,32.741305351,0,,-117.056590327,94004,Grove TC,,Grove Transit Center,,0,colgrv,94004
M-TC-Bus,32.7415695095,0,,-117.056543963,94005,Grove TC,,Grove Transit Center,,0,grove,94005
M-TC-Bus,32.7417127415,0,,-117.056496491,94006,Grove TC,,Grove Transit Center,,0,grove,94006
F-N/B,32.9087597526,0,,-117.110044568,13290,Scripps Ranch&Meanley,,Scripps Ranch Bl & Meanley Dr,,0,,13290
F-N/B,32.9121590946,0,,-117.109729154,13291,Scripps Ranch&Scripps Lake,,Scripps Ranch Bl & Scripps Lake Dr,,0,,13291
N-N/B,32.9137582283,0,,-117.109800182,13292,Scripps Ranch&Hibert,,Scripps Ranch Bl & Hibert St,,0,,13292
F-W/B,32.9168805757,0,,-117.112160647,13293,Mra Msa&Scripps Ranch,,Mira Mesa Bl & Scripps Ranch Bl,,0,,13293
F-W/B,32.8299444098,1,,-117.104788538,60797,Cmnt Mesa&Santo,,Clairemont Mesa Bl & Santo Rd,,0,clasan,60797
N-W/B,32.8290003832,1,,-117.102191329,60796,Cmnt Mesa&Santo,,Clairemont Mesa Bl & Santo Rd,,0,,60796
F-E/B,32.5838583646,1,,-117.129269234,60067,Palm&2nd,,Palm Av & 2nd St,,0,,60067
F-E/B,32.5765537928,1,,-117.130679947,60066,Imperial Bch&Seacoast,,Imperial Beach Bl & Seacoast Dr,,0,,60066
F-S/B,32.8165821273,1,,-117.123892262,12107,Ruffin&Sky Park,,Ruffin Rd & Sky Park Ct,,0,rufsky,12107
F-S/B,32.8325030915,1,,-117.126768694,12106,Ruffin&Farnham,,Ruffin Rd & Farnham St,,0,ruffar,12106
F-S/B,32.8390592272,1,,-117.127410273,12105,Ruffin&Kearny Villa,,Ruffin Rd & Kearny Villa Rd,,0,rufche,12105
F-S/B,32.7390903848,1,,-117.129348245,12101,30th&Thorn,,30th St & Thorn St,,0,,12101
F-S/B,32.7353989832,1,,-117.129369945,12100,30th&Palm,,30th St & Palm St,,0,,12100
N-S/B,32.5735005033,1,,-117.036013137,99408,Dennery&Del Sol,,Dennery Rd & Del Sol Bl,,0,,99408
F-N/B,32.9491074186,0,,-117.096144878,40764,Sabre Sprgs&Savannah Creek,,Sabre Springs Pkwy & Savannah Creek Rd,,0,sabpow,40764
N-E/B,32.7292336953,1,,-117.204836383,13454,N Harbor&Spanish Landing (Trm 2),,N Harbor Dr & Spanish Landing (Terminal 2),,0,,13454
F-W/B,32.7295423648,1,,-117.205083609,13455,N Harbor&Spanish Landing (Trm 2),,N Harbor Dr & Spanish Landing (Terminal 2),,0,,13455
F-N/B,32.9887669339,1,,-117.074754255,13452,Carmel Mtn&Rcho Carmel (N),,Carmel Mountain Rd & Rancho Carmel Dr (N),,0,,13452
F-N/B,32.9833513152,1,,-117.07574372,13450,Carmel Mtn&Highland Ranch,,Carmel Mountain Rd & Highland Ranch Rd,,0,,13450
F-S/B,32.9162973562,1,,-117.12475607,12108,Black Mtn&Mra Msa,,Black Mountain Rd & Mira Mesa Bl,,0,blamir,12108
F-S/B,32.716513624,0,,-117.247196046,11527,Catalina&Warner,,Catalina Bl & Warner St,,0,,11527
F-S/B,32.7237046233,0,,-117.173265549,11638,N Harbor&Grape,,N Harbor Dr & Grape St,,0,,11638
N-S/B,32.7201313348,1,,-117.162993049,11639,2nd&Ash,,2nd Av & Ash St,,0,,11639
N-S/B,32.7294359685,1,,-117.163983672,11636,1st&Juniper,,1st Av & Juniper St,,0,,11636
N-S/B,32.7434127861,1,,-117.163900993,11637,1st&Brookes,,1st Av & Brookes Av,,0,,11637
N-S/B,32.7918497264,1,,-117.165780108,11630,L Vsta&Gnsee,,Linda Vista Rd & Genesee Av,,0,lvgenW,11630
F-W/B,32.801553943,2,,-117.040193436,11448,Jackson&Golfcrest,,Jackson Dr & Golfcrest Dr,,0,,11448
M-TC-Bus,32.5696728115,0,,-117.066285324,91015,IrisTC,iritro,Iris Avenue Transit Center,,0,iritro,91015
N-S/B,32.71902144,1,,-117.164779551,11633,Front&A,,Front St & A St,,0,froast,11633
N-S/B,32.8055607343,1,,-116.971123142,40540,Johnson&Arnele,,Johnson Av & Arnele Av,,0,pkpl_o,40540
M-Street-E/B,32.6686388746,2,,-116.293738702,98064,Old80&39710 (Sun Country Real Estate),,Old Hwy 80 & 39710 (Sun Country Real Estate),,0,,98064
F-S/B,32.9545865684,1,,-117.095940076,99547,Sabre Sprgs&Wimberly Sq,,Sabre Springs Pkwy & Wimberly Sq,,0,,99547
F-N/B,32.7108847437,0,,-117.248540082,12619,Catalina&EleCtron,,Catalina Bl & Electron Dr,,0,,12619
N-E/B,32.7628362115,1,,-117.128371918,10169,Adams&Boundary,,Adams Av & Boundary St,,0,,10169
N-E/B,32.9158947818,1,,-117.129972378,10168,Mra Msa&Marbury,,Mira Mesa Bl & Marbury Av,,0,,10168
F-E/B,32.7212211712,1,,-117.129511361,10167,Beech&Fern,,Beech St & Fern St,,0,,10167
M-Street-E/B,32.7168089706,1,,-117.130400446,10166,C&30th,,C St & 30th St,,0,c_30st,10166
F-E/B,32.6927509325,1,,-117.129295605,10165,Main&30th,,Main St & 30th St,,0,,10165
N-E/B,32.7063427071,1,,-117.129622984,10164,Imperial&30th,,Imperial Av & 30th St,,0,,10164
N-E/B,32.7011147248,1,,-117.129668339,10163,Ocn Vw&30th,,Ocean View Bl & 30th St,,0,,10163
N-E/B,32.7410298825,1,,-117.129481426,10162,Upas&30th,,Upas St & 30th St,,0,,10162
N-E/B,32.748335502,1,,-117.13024061,10161,Univ&30th,,University Av & 30th St,,0,uni30t,10161
N-E/B,32.7628274294,1,,-117.130375655,10160,Adams&30th,,Adams Av & 30th St,,0,30ada,10160
,32.7084390836,0,,-117.094819083,75070,47th St,47tS_S,47th Street Station,47tS,0,47tS_S,75070
F-N/B,32.8778999987,1,,-117.213882873,21706,Gnsee&Eastgate Mall,,Genesee Av & Eastgate Mall,,0,,21706
N-E/B,32.7496702326,1,,-117.114450177,60665,Univ&Cherokee,,University Av & Cherokee Av,,0,,60665
N-S/B,32.8559125141,1,,-116.9711808,40543,Magnolia&Mast,,Magnolia Av & Mast Bl,,0,magmas,40543
,32.705276948,0,,-117.138730951,75074,25th/Commercial St,25tS_S,25th/Commercial St Station,25tS,0,25tS_S,75074
F-S/B,32.8699722311,1,,-117.241792763,10368,LJ Vlge&N. Try Pines,,La Jolla Village Dr & N. Torrey Pines Rd,,0,,10368
,32.7417239437,0,,-117.184467913,75076,Washington St,wasS_S,Washington St Station,wasS,0,wasS_N,75076
F-N/B,32.8824855075,1,,-117.220431646,21700,Gnsee&Campus Pt,,Genesee Av & Campus Point Dr,,0,camgen,21700
F-E/B,32.7507638508,1,,-117.241992565,10365,WPt Loma&Sunset Cliffs,,West Point Loma Bl & Sunset Cliffs Bl,,0,wplsun,10365
F-E/B,32.7497443189,1,,-117.242995869,10364,Voltaire&Sunset Cliffs,,Voltaire St & Sunset Cliffs Bl,,0,,10364
F-E/B,32.7486807464,1,,-117.241273083,10366,Voltaire&Ebers,,Voltaire St & Ebers St,,0,,10366
F-E/B,32.7708808413,1,,-117.246711909,10361,W Mission Bay&Mariners,,W Mission Bay Dr & Mariners Wy,,0,,10361
F-E/B,32.7954271194,1,,-117.25090128,10360,Grand&Cass,,Grand Av & Cass St,,0,,10360
F-E/B,32.798559182,1,,-117.245961034,10363,Garnet&Fanuel,,Garnet Av & Fanuel St,,0,,10363
M-Street-S/B,32.7269946001,1,,-116.970337213,40545,Swtwter Sprgs&Jamacha,,Sweetwater Springs Bl & Jamacha Bl,,0,,40545
N-S/B,32.7018757243,1,,-117.146885214,60465,Natl&Beardsley,,National Av & Beardsley St,,0,,60465
F-S/B,32.8229288491,1,,-117.104193081,12129,Santo&Trasnta,,Santo Rd & Tierrasanta Bl,,0,santie,12129
F-S/B,32.5761340366,1,,-117.092868698,60466,Saturn&Crndo,,Saturn Bl & Coronado Av,,0,satcor,60466
M-Street-N/B,32.6054289258,1,,-117.079276669,60461,Brdwy&1225,,Broadway & 1225,,0,,60461
F-S/B,32.8158398027,1,,-117.105478346,12128,Santo&Shields,,Santo Rd & Shields St,,0,,12128
N-S/B,32.8695029928,1,,-117.248522819,11528,LJ Shores&Discovery Way,,La Jolla Shores Dr & Discovery Way,,0,,11528
M-Street-E/B,32.7770048144,1,,-117.029324623,13140,Baltimore&Aztec,,Baltimore Dr & Aztec Dr,,0,,13140
F-E/B,32.5835778725,1,,-117.050292595,60469,Palm&Piccard,,Palm Av & Piccard Av,,0,,60469
N-S/B,32.6483519865,1,,-117.148676844,60468,Slvr Strnd&Leyte,,Silver Strand Bl & Leyte Rd,,0,,60468
F-S/B,32.6012997366,1,,-117.064593933,12213,3rd&Orange,,3rd Av & Orange Av,,0,ora3rd,12213
N-S/B,32.8497623621,1,,-117.261102259,10760,Try Pines&Viking Way,,Torrey Pines Rd & Viking Way,,0,,10760
N-W/B,32.7721538704,1,,-117.250731174,10763,W Mission Bay&Mission,,W Mission Bay Dr & Mission Bl,,0,mismis,10763
N-W/B,32.7952263724,1,,-117.252945885,10762,Grand&Bayard,,Grand Av & Bayard St,,0,,10762
N-W/B,32.7498171877,1,,-117.242821054,10765,Voltaire&Sunset Cliffs,,Voltaire St & Sunset Cliffs Bl,,0,,10765
N-W/B,32.798748525,1,,-117.245998973,10764,Garnet&Fanuel,,Garnet Av & Fanuel St,,0,,10764
F-S/B,32.7524760129,1,,-117.064420678,12215,Coll&Univ,,College Av & University Av,,0,,12215
N-W/B,32.7929486537,1,,-117.081579405,11388,Zion&Glenroy,,Zion Av & Glenroy St,,0,,11388
N-W/B,32.7464347394,2,,-117.237559608,10769,Voltaire&Soto,,Voltaire St & Soto St,,0,,10769
N-W/B,32.8003340464,1,,-117.238867038,10768,Garnet&Jewell,,Garnet Av & Jewell St,,0,,10768
F-S/B,32.7852433507,1,,-117.062787689,12218,Coll&Rockhurst,,College Av & Rockhurst Dr,,0,,12218
,32.732854,1,,-117.176497,80001,Palm Street,,Palm Street,,0,,80001
,32.731027,1,,-117.202462,80003,Terminal 2,,Terminal 2 / Courtesy Vehicles Stop,,0,,80003
,32.731925,1,,-117.198102,80002,Terminal 1,,Terminal 1,,0,,80002
N-N/B,32.5669196607,1,,-117.062004723,60359,Beyer&Dairy Mart,,Beyer Bl & Dairy Mart Rd,,0,,60359
F-E/B,32.8025164576,1,,-116.996837197,40168,Fletcher&Garfield,,Fletcher Pkwy & Garfield Av,,0,flegar,40168
N-E/B,32.8385393633,1,,-116.996169386,40169,Msn Grg&Carlton Hills,,Mission Gorge Rd & Carlton Hills Bl,,0,mischl,40169
M-Street-E/B,32.8019415626,1,,-116.999634337,40166,Fletcher&Navajo,,Fletcher Pkwy & Navajo Rd,,0,,40166
F-E/B,32.7503791587,1,,-116.997510857,40167,Campo&Helix,,Campo Rd & Helix Ln,,0,,40167
F-E/B,32.7511912286,2,,-117.000923113,40165,Campo&Bancroft,,Campo Rd & Bancroft Dr,,0,,40165
F-E/B,32.8328833153,2,,-117.00515876,40162,Prospect&Placid View,,Prospect Av & Placid View Rd,,0,,40162
F-E/B,32.7522563534,1,,-117.004737663,40161,Campo&Merritt,,Campo Rd & Merritt Bl,,0,,40161
F-E/B,32.7512990512,1,,-117.235571521,99155,WPt Loma&Nimitz,,West Point Loma Bl & Nimitz Bl,,0,,99155
N-E/B,32.8660274592,1,,-116.976715483,40893,Woodglen Vista&Ironwood,,Woodglen Vista Dr & Ironwood Av,,0,,40893
N-N/B,32.9965220785,1,,-117.023427612,40890,Espola&Eden Grove (Poway Hs),,Espola Rd & Eden Grove (Poway Hs),,0,powahs,40890
F-W/B,32.8938778719,1,,-117.131322388,99156,Miramar&Clayton,,Miramar Rd & Clayton Dr,,0,,99156
N-E/B,32.7293062509,1,,-116.962259413,40896,Jamacha&Lamplighter Vlge,,Jamacha Bl & Lamplighter Village,,0,,40896
F-W/B,32.5678358918,1,,-116.954267325,99402,Otay Mesa&Piper Ranch,,Otay Mesa Rd & Piper Ranch Rd,,0,,99402
N-S/B,32.7368256531,1,,-116.971789904,40894,Swtwter Sprgs&Monte Vista Hs,,Sweetwater Springs Bl & Monte Vista Hs,,0,,40894
F-E/B,32.5677309842,1,,-116.974247224,99400,Otay Mesa&Gailes,,Otay Mesa Rd & Gailes Bl,,0,,99400
F-E/B,32.7023952966,1,,-117.145736489,10501,Logan&Beardsley,,Logan Av & Beardsley St,,0,,10501
M-Street-E/B,32.7706276709,1,,-117.147172073,10500,Cmo De La Reina&Michaels,,Camino De La Reina & Michaels,,0,,10500
F-E/B,32.7114638337,1,,-117.143676435,10503,Mrkt&22nd,,Market St & 22nd St,,0,,10503
M-Street-E/B,32.7551201865,1,,-117.14570983,10502,El Cjn&Park,,El Cajon Bl & Park Bl,,0,,10502
N-E/B,32.7707267352,1,,-117.144505411,10505,Cmo De La Reina&Cmo Del Este,,Camino De La Reina & Camino Del Este,,0,,10505
F-E/B,32.7157345868,1,,-117.143735993,10504,Brdwy&22nd,,Broadway & 22nd St,,0,,10504
F-E/B,32.7624114715,1,,-117.1435069,10507,Adams&Florida,,Adams Av & Florida St,,0,,10507
F-E/B,32.8095518666,1,,-117.144177306,10506,Aero&Afton,,Aero Dr & Afton Rd,,0,,10506
M-Street-W/B,32.8844810126,1,,-117.152229109,13070,Miramar&7636,,Miramar Rd & 7636,,0,,13070
F-E/B,32.6850760628,1,,-117.100849044,59010,Division&Highland,,Division St & Highland Av,,0,,59010
F-W/B,32.8207033565,2,,-117.141409804,13072,Balboa&Pennisi Dvwy,,Balboa Av & Pennisi Dvwy,,0,balpen,13072
M-Street-W/B,32.830168131,2,,-117.138129746,13073,Complex&8806,,Complex Dr & 8806,,0,,13073
M-Street-W/B,32.8210329285,1,,-117.137246595,13074,Balboa&8808,,Balboa Av & 8808,,0,ba8808,13074
N-W/B,32.9018793463,1,,-117.111358724,13078,Willow Creek&Businesspark,,Willow Creek Rd & Businesspark Av,,0,,13078
M-Street-E/B,32.7780923705,1,,-117.105004355,13079,Cmo Del Rio S&4141,,Camino Del Rio S & 4141,,0,natuni,13079
M-Street-N/B,32.6000100006,1,,-117.037226557,30432,Melrose&Talus,,Melrose Av & Talus St,,0,,30432
N-W/B,32.5680627845,2,,-116.974843918,99404,Otay Mesa&Gailes,,Otay Mesa Rd & Gailes Bl,,0,,99404
F-S/B,32.9511634074,1,,-117.107698275,12124,Rcho Pnsqts&Paseo Montril,,Rancho Penasquitos Bl & Paseo Montril,,0,pasran,12124
F-S/B,32.826230585,1,,-117.190331285,11964,Gnsee&Mt Herbert,,Genesee Av & Mt Herbert Av,,0,,11964
F-S/B,32.7835935462,1,,-117.189501883,11965,Burgener&July,,Burgener Bl & July St,,0,,11965
F-S/B,32.8248997302,1,,-117.187514281,11966,Gnsee&Mt Foraker,,Genesee Av & Mt Foraker Av,,0,,11966
F-S/B,32.8225523779,1,,-117.183902072,11967,Gnsee&Derrick,,Genesee Av & Derrick Dr,,0,,11967
F-E/B,32.8008544895,1,,-116.957494535,40193,Madison&Ballantyne,,Madison Av & Ballantyne St,,0,madba1,40193
F-S/B,32.7862020737,1,,-117.190561177,11963,Burgener&Lister,,Burgener Bl & Lister St,,0,,11963
F-S/B,32.6912934495,1,,-117.077792831,59014,Harbison&Division,,Harbison Av & Division St,,0,,59014
F-S/B,32.8210644859,1,,-117.182935791,11968,Gnsee&Mt Etna,,Genesee Av & Mt Etna Dr,,0,,11968
F-N/B,32.8695661204,1,,-117.237935228,13278,Gilman&Evening Way,,Gilman Dr & Evening Way,,0,,13278
F-S/B,32.8688055356,1,,-117.238183983,13279,Gilman&Evening Way,,Gilman Dr & Evening Way,,0,,13279
M-Street-W/B,32.6186355039,2,,-117.051857644,30187,E Naples&Jamul,,E Naples St & Jamul Av,,0,,30187
F-N/B,32.628151616,1,,-117.074628013,12920,3rd&J,,3rd Av & J St,,0,3rdj,12920
F-N/B,32.7002212518,1,,-117.07317299,12923,58th&Mira Flores,,58th St & Mira Flores Dr,,0,,12923
F-N/B,32.7119526611,2,,-117.073870991,12922,Pyramid&Kenwood,,Pyramid St & Kenwood St,,0,,12922
F-N/B,33.0319110173,0,,-117.074989743,12925,Bdo Ctr&Fairhope,,Bernardo Center Dr & Fairhope Rd,,0,,12925
F-N/B,32.6209996676,1,,-117.071807109,12924,3rd&L,,3rd Av & L St,,0,,12924
F-N/B,32.6141354746,1,,-117.069102994,12927,3rd&Naples,,3rd Av & Naples St,,0,,12927
N-E/B,32.7628051831,1,,-117.137701101,10140,Adams&Arizona,,Adams Av & Arizona St,,0,,10140
F-N/B,32.7722352429,1,,-117.06977285,12929,Coll&Lindo Paseo,,College Av & Lindo Paseo,,0,colpas,12929
F-W/B,32.9913706078,1,,-117.072560937,12928,Cmo Del Norte&Paseo Lucido,,Camino Del Norte & Paseo Lucido,,0,,12928
N-W/B,32.7877745093,1,,-116.957012015,40300,Wshngtn&Avocado,,Washington Av & Avocado Av,,0,wasavo,40300
,32.685820393,,,-117.124491067,pacS_S,pacS_S,,Pacific Fleet Station,pacS,1,,
N-W/B,32.8002755755,1,,-116.948143528,40306,Madison&June,,Madison Av & June Wy,,0,,40306
N-W/B,32.7877791182,1,,-116.947992406,40307,Wshngtn&Anza,,Washington Av & Anza St,,0,,40307
N-W/B,32.6406239335,1,,-117.048805827,30189,EH&Hidden Vista,,East H St & Hidden Vista Dr,,0,ehhidd,30189
N-W/B,32.7399340751,1,,-116.941089764,40305,Jamacha&Campo,,Jamacha Rd & Campo Rd,,0,,40305
M-Street-E/B,32.9606859522,1,,-117.111005831,10215,Carmel Mtn&Freeport,,Carmel Mountain Rd & Freeport Rd,,0,cmrfre,10215
N-E/B,32.6960130523,1,,-117.1082812,10214,Natl&40th,,National Av & 40th St,,0,,10214
N-E/B,32.8477540123,2,,-116.807269738,40098,Alpine&Peutz Vly,,Alpine Bl & Peutz Valley Rd,,0,,40098
M-Street-E/B,32.7047552936,2,,-117.108782421,10216,Imperial&40th,,Imperial Av & 40th St,,0,,10216
M-Street-E/B,32.7778577065,1,,-117.115406805,10210,Cmo Del Rio S&3661,,Camino Del Rio S & 3661,,0,,10210
N-S/B,32.7021450859,1,,-117.135474659,10145,Ocn Vw&Sampson,,Ocean View Bl & Sampson St,,0,,10145
N-E/B,32.8629080857,1,,-116.921818965,40090,Mapleview&Vine,,Mapleview St & Vine St,,0,mapvin,40090
N-E/B,32.8001613728,1,,-116.920653598,40091,Madison&Terra,,Madison Av & Terra Ln,,0,,40091
N-E/B,32.8573289054,2,,-116.825409828,40096,Old80&Silva,,Old Hwy 80 & Silva Rd,,0,,40096
N-E/B,32.8581140627,2,,-116.819673899,40097,Old80&Alpine,,Old Hwy 80 & Alpine Bl,,0,,40097
N-E/B,32.847586663,1,,-116.86897044,40094,Old80&Spring View,,Old Hwy 80 & Spring View Ct,,0,,40094
N-E/B,32.8563838491,2,,-116.834687513,40095,Old80&Hawley,,Old Hwy 80 & Hawley Rd,,0,,40095
N-E/B,32.7116820908,0,,-117.122406868,10184,Mrkt&33rd,,Market St & 33rd St,,0,,10184
N-E/B,32.7066693871,0,,-117.122714856,10187,Imperial&33rd,,Imperial Av & 33rd St,,0,,10187
N-E/B,32.7011531337,1,,-117.122715509,10186,Ocn Vw&33rd,,Ocean View Bl & 33rd St,,0,,10186
F-S/B,32.802577403,1,,-117.198156231,11948,Clairemont&Dakota,,Clairemont Dr & Dakota Dr,,0,,11948
N-E/B,32.7755159603,1,,-117.127089629,10182,Cmo Del Rio N&Mission City,,Camino Del Rio N & Mission City Pkwy,,0,mispky,10182
F-S/B,32.7649196629,1,,-117.197464643,11949,L Vsta&Napa,,Linda Vista Rd & Napa St,,0,livnap,11949
N-E/B,32.7551545682,1,,-117.122499064,10189,El Cjn&33rd,,El Cajon Bl & 33rd St,,0,,10189
N-E/B,32.7632949282,2,,-117.122989562,10188,Adams&33rd,,Adams Av & 33rd St,,0,,10188
F-N/B,32.9591187506,1,,-117.062335043,40768,Pomerado&9th,,Pomerado Rd & 9th St,,0,,40768
N-E/B,32.9127447875,1,,-117.135773587,10149,Mra Msa&Westonhill,,Mira Mesa Bl & Westonhill Dr,,0,,10149
M-Street-N/B,32.6504563489,0,,-117.006377933,30509,Otay Lakes&575,,Otay Lakes Rd & 575,,0,,30509
M-Street-W/B,32.9567079424,1,,-117.049317937,40948,Poway&12900,,Poway Rd & 12900,,0,,40948
M-Street-E/B,32.83432849,2,,-116.726323952,40944,Willows&4058,,Willows Rd & 4058,,0,,40944
M-Street-N/B,32.6181286465,1,,-117.023228658,30507,Medical Ctr&751 Sharp Hospital,,Medical Center Ct & 751 Sharp Hospital,,0,shchvi,30507
F-N/B,32.9522201256,1,,-117.062323452,40765,Pomerado&Poway,,Pomerado Rd & Poway Rd,,0,powpom,40765
F-N/B,32.9552819253,1,,-117.062325667,40766,Pomerado&Robison,,Pomerado Rd & Robison Bl,,0,,40766
F-N/B,32.9575166089,1,,-117.062300676,40767,Pomerado&Mcferon,,Pomerado Rd & Mcferon Rd,,0,,40767
F-E/B,32.8472548908,2,,-116.870456109,40236,Old80&Bond,,Old Hwy 80 & Bond Av,,0,,40236
N-S/B,32.7959547868,1,,-116.971125835,40541,Johnson&W Main,,Johnson Av & W Main St,,0,,40541
F-E/B,32.8435108861,2,,-116.879806666,40234,Pecan Park&Olde Hwy 80,,Pecan Park Ln & Olde Hwy 80,,0,oldpec,40234
F-E/B,32.8437857962,2,,-116.877093216,40235,Pecan Park&Rios Cyn,,Pecan Park Ln & Rios Canyon Rd,,0,,40235
F-N/B,32.8324893932,2,,-116.905195439,40232,Bus 8&Los Coches,,Business 8 & Los Coches Rd,,0,,40232
F-E/B,32.8419428582,2,,-116.887580133,40233,Bus 8&Pinkard,,Business 8 & Pinkard Ln,,0,,40233
F-E/B,32.5676117644,1,,-116.965492511,99401,Otay Mesa&Otay Mesa Ctr,,Otay Mesa Rd & Otay Mesa Center Rd,,0,,99401
N-S/B,32.8397940642,1,,-116.968115287,40549,Magnolia&Park,,Magnolia Av & Park Av,,0,,40549
F-E/B,32.8505270233,2,,-116.858001637,40239,Old80&Labrador,,Old Hwy 80 & Labrador Ln,,0,,40239
N-S/B,32.6376703934,1,,-117.083094441,30293,4th&Park,,4th Av & Park Wy,,0,,30293
F-N/B,33.0117395154,2,,-117.056287537,40784,Pomerado&Avda La Valencia,,Pomerado Rd & Avenida La Valencia,,0,,40784
N-E/B,32.6893701983,2,,-117.085432335,59013,Division&Euclid,,Division St & Euclid Av,,0,diveuc,59013
F-N/B,32.9970258695,1,,-117.057711562,40782,Pomerado&Pomerado Hospital,,Pomerado Rd & Pomerado Hospital,,0,pompom,40782
N-N/B,32.6855369513,1,,-117.061845825,59015,Munda&Ridgewood,,Munda Rd & Ridgewood Dr,,0,munrdg,59015
F-N/B,33.0044115901,2,,-117.057626157,40780,Pomerado&Stone Cyn,,Pomerado Rd & Stone Canyon Rd,,0,,40780
F-N/B,32.9936690697,0,,-117.057850301,40781,Pomerado&Via Monte Claro,,Pomerado Rd & Via Monte Claro,,0,,40781
F-W/B,32.6862131785,2,,-117.084066622,59018,4th&Euclid,,4th St & Euclid Av,,0,4theuc,59018
F-E/B,32.6858400484,1,,-117.061312349,59019,Oriskany&Munda,,Oriskany Rd & Munda Rd,,0,rdgmun,59019
F-S/B,32.6303130318,1,,-117.075694091,30299,3rd&I,,3rd Av & I St,,0,,30299
F-N/B,32.9575051232,1,,-117.036437839,40789,Midland&Poway,,Midland Rd & Poway Rd,,0,midpow,40789
N-W/B,32.8401282839,1,,-117.274496881,11108,Pearl&Eads,,Pearl St & Eads Av,,0,,11108
F-N/B,32.6522123396,2,,-117.014885491,30486,Otay Lakes&Ridgeview,,Otay Lakes Rd & Ridgeview Wy,,0,,30486
N-W/B,32.7309380645,1,,-116.969026475,40989,Austin&Via Orange,,Austin Dr & Via Orange Wy,,0,,40989
N-E/B,32.6314760368,1,,-116.9830791,39045,EPalomar&Vista Sonrisa,,East Palomar St & Vista Sonrisa,,0,,39045
F-W/B,32.8393984081,1,,-117.277656311,11106,Pearl&Cuvier,,Pearl St & Cuvier St,,0,,11106
F-S/B,32.845369298,1,,-117.273226164,11107,Silverado&Herschel,,Silverado St & Herschel Av,,0,silher,11107
F-S/B,32.6396590654,1,,-117.097383483,30341,Woodlawn&E,,Woodlawn Av & E St,,0,,30341
F-S/B,32.6304870969,1,,-117.089389582,30342,Brdwy&H,,Broadway & H St,,0,,30342
F-S/B,32.6360447267,1,,-117.08247491,30345,4th&G,,4th Av & G St,,0,,30345
F-S/B,32.639567349,1,,-117.083833501,30344,4th&F,,4th Av & F St,,0,,30344
M-Street-S/B,32.6325139767,1,,-117.081096863,30346,4th&H,,4th Av & H St,,0,h4th,30346
F-S/B,32.625923941,1,,-117.078524161,30349,4th&J,,4th Av & J St,,0,,30349
M-Street-S/B,32.7878068365,1,,-117.108388336,10588,Rcho Mission&Friars,,Rancho Mission Rd & Friars Rd,,0,,10588
M-Street-S/B,32.7072430754,1,,-117.085114089,91043,Euclid&Euclid Health Ctr,,Euclid Av & Euclid Health Center,,0,,91043
F-N/B,32.6743634862,1,,-117.078907782,50180,Euclid&18th,,Euclid Av & 18th St,,0,,50180
N-N/B,32.8027098169,1,,-117.0101884,12589,Lake Murray&Navajo,,Lake Murray Bl & Navajo Rd,,0,,12589
N-N/B,32.7087649037,1,,-117.01135805,12588,Swtwter&Orville,,Sweetwater Rd & Orville St,,0,,12588
N-W/B,32.7312681559,1,,-116.959963271,40438,Jamacha&Calavo,,Jamacha Bl & Calavo Dr,,0,jamdbl,40438
M-Street-N/B,32.6704017088,1,,-117.072933638,50184,Granger&24th,,Granger Av & 24th St,,0,,50184
M-Street-W/B,32.6767934649,1,,-117.086187372,50186,Pza&1858,,Plaza Bl & 1858,,0,,50186
N-N/B,32.7418246597,1,,-117.026193856,12583,Kempf&Golden,,Kempf St & Golden Av,,0,,12583
N-N/B,32.7377200046,1,,-117.026378837,12582,Skyline&Lincoln,,Skyline Dr & Lincoln St,,0,,12582
F-N/B,32.9537810889,1,,-117.10833018,12853,Rcho Pnsqts&Via Del Sud,,Rancho Penasquitos Bl & Via Del Sud,,0,,12853
N-N/B,32.7058192265,1,,-117.013468403,12587,Elkelton&Noeline,,Elkelton Bl & Noeline Av,,0,,12587
F-W/B,32.7877724864,1,,-116.965471988,40431,Wshngtn&Sunshine,,Washington Av & Sunshine Av,,0,,40431
F-W/B,32.8588311502,1,,-116.965551486,40432,2nd&Cleary,,2nd St & Cleary St,,0,,40432
N-N/B,32.7151304615,1,,-117.025025697,12584,Cardiff&Wade,,Cardiff St & Wade St,,0,,12584
N-N/B,32.7946122946,1,,-117.068298776,11037,Waring&Galewood,,Waring Rd & Galewood St,,0,,11037
N-W/B,32.7101058,2,,-117.070966841,11032,Mrkt&Merlin,,Market St & Merlin Dr,,0,,11032
N-W/B,32.7599072703,1,,-117.070331472,11033,El Cjn&59th,,El Cajon Bl & 59th St,,0,,11033
N-W/B,33.0230213449,0,,-117.073503335,11030,Rcho Bdo&Bdo Ctr,,Rancho Bernardo Rd & Bernardo Center Dr,,0,berran,11030
F-W/B,32.7708508277,1,,-117.070888841,11031,Mntzma&Coll,,Montezuma Rd & College Av,,0,,11031
M-Street-W/B,32.8064476702,1,,-117.217946783,10790,Garnet&Mission Bay,,Garnet Av & Mission Bay Dr,,0,,10790
F-N/B,32.5467907233,1,,-117.042473045,60578,Willow&Cmo De La Pza,,Willow Rd & Camino De La Plaza,,0,,60578
N-W/B,33.0226937113,1,,-117.069862498,11038,Rcho Bdo&Acena,,Rancho Bernardo Rd & Acena Dr,,0,,11038
N-W/B,32.7705305511,0,,-117.064054074,11039,Mntzma&63rd,,Montezuma Rd & 63rd St,,0,,11039
N-N/B,32.5488590782,2,,-117.042238492,60577,Willow&Calle Primera,,Willow Rd & Calle Primera,,0,,60577
M-Street-S/B,32.7613572737,1,,-117.082413208,12176,Collwood&4200,,Collwood Bl & 4200,,0,,12176
F-N/B,32.5509143813,2,,-117.045307356,60575,Calle Primera&Sycamore,,Calle Primera & Sycamore Rd,,0,,60575
F-E/B,32.9070314698,1,,-117.17358728,13207,Mra Msa&Viper,,Mira Mesa Bl & Viper Wy,,0,,13207
F-N/B,32.5528931629,1,,-117.0457503,60574,San Ysidro&Cypress,,San Ysidro Bl & Cypress Dr,,0,,60574
F-W/B,32.729610613,1,,-117.195511184,13325,N Harbor&Harbor Island,,N Harbor Dr & Harbor Island Dr,,0,harhis,13325
F-E/B,32.9065424843,1,,-117.176491797,13206,Mra Msa&Flanders,,Mira Mesa Bl & Flanders Dr,,0,mirfla,13206
F-W/B,32.553982647,1,,-117.048129148,60573,San Ysidro&Cottonwood,,San Ysidro Bl & Cottonwood Rd,,0,sancot,60573
F-E/B,32.905617122,1,,-117.180398471,13205,Mra Msa&Steadman,,Mira Mesa Bl & Steadman St,,0,,13205
F-W/B,32.5547031033,1,,-117.049768033,60572,San Ysidro&Smythe,,San Ysidro Bl & Smythe Av,,0,,60572
,32.7907001333,0,,-117.09937697,99299,Friars&Riverdale,,Friars Rd & Riverdale St,,0,,99299
F-W/B,32.55565649,2,,-117.051931553,60571,San Ysidro&Alverson,,San Ysidro Bl & Alverson Rd,,0,,60571
F-E/B,32.7542234165,1,,-117.05950585,10683,Univ&Bonillo,,University Av & Bonillo Dr,,0,,10683
F-E/B,32.9002515281,1,,-117.18882244,13203,Mra Msa&Pcfc Heights,,Mira Mesa Bl & Pacific Heights Bl,,0,mirpac,13203
F-W/B,32.5561969701,1,,-117.054607368,60570,San Ysidro&Averil,,San Ysidro Bl & Averil Rd,,0,,60570
F-E/B,32.8965364038,1,,-117.192679263,13202,Mra Msa&Oberlin,,Mira Mesa Bl & Oberlin Dr,,0,,13202
N-N/B,32.7588909006,1,,-117.146122242,12455,Park&Monroe,,Park Bl & Monroe Av,,0,,12455
N-N/B,32.7538940712,1,,-117.146126712,12454,Park&Howard,,Park Bl & Howard Av,,0,,12454
M-Street-N/B,32.732011842,1,,-117.145930212,12457,Park&Vlge,,Park Bl & Village Pl,,0,,12457
N-W/B,32.6773744091,1,,-117.101697674,11358,8th&E,,8th St & E Av,,0,,11358
N-N/B,32.6989991388,1,,-117.146355354,12451,Main&Cesar E Chavez,,Main St & Cesar E Chavez Pkwy,,0,,12451
N-N/B,32.7520526327,1,,-117.146117741,12453,Park&Polk,,Park Bl & Polk Av,,0,,12453
F-W/B,32.7006081099,0,,-117.104386138,11353,Ocn Vw&San Miguel,,Ocean View Bl & San Miguel Av,,0,,11353
